ID;Name;global_id;AdmArea;District;Address;Capacity;DepartamentalAffiliation;ObjectOperOrgName;ObjectOperOrgPhone;Longitude_WGS84;Latitude_WGS84;geoData
32;Велосипедная парковка № 37124 «Гимназия № 1506»;2757725;Северо-Восточный административный округ;район Северное Медведково;Широкая улица, дом 1А;10;Департамент транспорта и развития дорожно-транспортной инфраструктуры города Москвы;ГКУ Центр организации дорожного движения Правительства Москвы;(495) 361-78-07;37.650781;55.889628;{type=Point, coordinates=[37.650781000098, 55.889628000166]}
34;Велосипедная парковка № 21052 «Житная улица, дом 16»;2757727;Центральный административный округ;район Якиманка;Житная улица, дом 16;10;Департамент транспорта и развития дорожно-транспортной инфраструктуры города Москвы;ГКУ Центр организации дорожного движения Правительства Москвы;(495) 361-78-07;37.614030;55.730393;{type=Point, coordinates=[37.614030000153, 55.730393000138]}
35;Велосипедная парковка № 37018 «Школа здоровья № 266»;2757728;Северо-Восточный административный округ;район Лианозово;Череповецкая улица, дом 10А;10;Департамент транспорта и развития дорожно-транспортной инфраструктуры города Москвы;ГКУ Центр организации дорожного движения Правительства Москвы;(495) 361-78-07;37.570777;55.896533;{type=Point, coordinates=[37.570776999572, 55.896533000007]}
36;Велосипедная парковка № 37106 «Центр образования № 1459»;2757729;Северо-Восточный административный округ;район Отрадное;Отрадная улица, дом 11А;10;Департамент транспорта и развития дорожно-транспортной инфраструктуры города Москвы;ГКУ Центр организации дорожного движения Правительства Москвы;(495) 361-78-07;37.612922;55.857407;{type=Point, coordinates=[37.612922000116, 55.857407000177]}
38;Велосипедная парковка № 37017 «Школа № 263»;2757731;Северо-Восточный административный округ;район Отрадное;Отрадная улица, дом 11Б;10;Департамент транспорта и развития дорожно-транспортной инфраструктуры города Москвы;ГКУ Центр организации дорожного движения Правительства Москвы;(495) 361-78-07;37.613732;55.856873;{type=Point, coordinates=[37.613732000228, 55.856873000223]}
40;Велосипедная парковка № 37061 «Школа № 950»;2757733;Северо-Восточный административный округ;район Отрадное;Отрадная улица, дом 1А;10;Департамент транспорта и развития дорожно-транспортной инфраструктуры города Москвы;ГКУ Центр организации дорожного движения Правительства Москвы;(495) 361-78-07;37.604736;55.859911;{type=Point, coordinates=[37.604735999681, 55.859910999858]}
2;Велосипедная парковка № 37026 «Школа № 301»;2757735;Северо-Восточный административный округ;Алтуфьевский район;Алтуфьевское шоссе, дом 60Б;10;Департамент транспорта и развития дорожно-транспортной инфраструктуры города Москвы;ГКУ Центр организации дорожного движения Правительства Москвы;(495) 361-78-07;37.591231;55.883355;{type=Point, coordinates=[37.591230999889, 55.883355000053]}
3;Велосипедная парковка № 37003 «Школа № 241»;2757736;Северо-Восточный административный округ;район Бибирево;Алтуфьевское шоссе, дом 94;10;Департамент транспорта и развития дорожно-транспортной инфраструктуры города Москвы;ГКУ Центр организации дорожного движения Правительства Москвы;(495) 361-78-07;37.590628;55.901533;{type=Point, coordinates=[37.590628000365, 55.901532999788]}
4;Велосипедная парковка № 37089 «Школа № 1956»;2757737;Северо-Восточный административный округ;район Марьина Роща;Старомарьинское шоссе, дом 5;10;Департамент транспорта и развития дорожно-транспортной инфраструктуры города Москвы;ГКУ Центр организации дорожного движения Правительства Москвы;(495) 361-78-07;37.610660;55.802872;{type=Point, coordinates=[37.61066000001, 55.802871999787]}
5;Велосипедная парковка № 37085 «Школа № 1414»;2757738;Северо-Восточный административный округ;район Марьина Роща;улица Советской Армии, дом 9;10;Департамент транспорта и развития дорожно-транспортной инфраструктуры города Москвы;ГКУ Центр организации дорожного движения Правительства Москвы;(495) 361-78-07;37.616177;55.789416;{type=Point, coordinates=[37.616176999734, 55.789415999761]}
6;Велосипедная парковка № 37094 «Центр образования № 166» (1);2757739;Северо-Восточный административный округ;район Лианозово;Алтуфьевское шоссе, дом 97, корпус 3;10;Департамент транспорта и развития дорожно-транспортной инфраструктуры города Москвы;ГКУ Центр организации дорожного движения Правительства Москвы;(495) 361-78-07;37.584654;55.903231;{type=Point, coordinates=[37.584653999808, 55.903230999829]}
7;Велосипедная парковка № 37004 «Школа № 242»;2757740;Северо-Восточный административный округ;район Марьина Роща;1-й проезд Марьиной Рощи, дом 3А;10;Департамент транспорта и развития дорожно-транспортной инфраструктуры города Москвы;ГКУ Центр организации дорожного движения Правительства Москвы;(495) 361-78-07;37.622192;55.793707;{type=Point, coordinates=[37.622192000299, 55.793706999946]}
8;Велосипедная парковка № 37158 «Спецшкола - интернат № 35»;2757741;Северо-Восточный административный округ;район Марьина Роща;Новосущёвская улица, дом 7;10;Департамент транспорта и развития дорожно-транспортной инфраструктуры города Москвы;ГКУ Центр организации дорожного движения Правительства Москвы;(495) 361-78-07;37.603125;55.787099;{type=Point, coordinates=[37.603124999678, 55.787099000231]}
9;Велосипедная парковка № 37055 «Школа № 758»;2757742;Северо-Восточный административный округ;район Бибирево;улица Лескова, дом 3, корпус 3;10;Департамент транспорта и развития дорожно-транспортной инфраструктуры города Москвы;ГКУ Центр организации дорожного движения Правительства Москвы;(495) 361-78-07;37.590641;55.899410;{type=Point, coordinates=[37.590640999885, 55.899410000104]}
10;Велосипедная парковка № 37157 «Спецшкола - интернат № 35»;2757743;Северо-Восточный административный округ;район Марьина Роща;Новосущёвская улица, дом 20;10;Департамент транспорта и развития дорожно-транспортной инфраструктуры города Москвы;ГКУ Центр организации дорожного движения Правительства Москвы;(495) 361-78-07;37.604204;55.786786;{type=Point, coordinates=[37.604204000302, 55.78678599996]}
11;Велосипедная парковка № 37010 «Школа № 254»;2757744;Северо-Восточный административный округ;район Бибирево;улица Лескова, дом 8А;10;Департамент транспорта и развития дорожно-транспортной инфраструктуры города Москвы;ГКУ Центр организации дорожного движения Правительства Москвы;(495) 361-78-07;37.596403;55.896243;{type=Point, coordinates=[37.596402999832, 55.896243000148]}
12;Велосипедная парковка № 37096 «Центр образования № 293»;2757745;Северо-Восточный административный округ;Алексеевский район;Ярославская улица, дом 27;10;Департамент транспорта и развития дорожно-транспортной инфраструктуры города Москвы;ГКУ Центр организации дорожного движения Правительства Москвы;(495) 361-78-07;37.653290;55.827312;{type=Point, coordinates=[37.653290000077, 55.827312000086]}
15;Велосипедная парковка № 37071 «Школа № 1220»;2757748;Северо-Восточный административный округ;Останкинский район;Аргуновская улица, дом 12, корпус 2, строение 2;10;Департамент транспорта и развития дорожно-транспортной инфраструктуры города Москвы;ГКУ Центр организации дорожного движения Правительства Москвы;(495) 361-78-07;37.621024;55.817593;{type=Point, coordinates=[37.621023999986, 55.817592999783]}
16;Велосипедная парковка № 37032 «Школа здоровья № 306»;2757749;Северо-Восточный административный округ;район Ростокино;Сельскохозяйственная улица, дом 20, корпус 1;10;Департамент транспорта и развития дорожно-транспортной инфраструктуры города Москвы;ГКУ Центр организации дорожного движения Правительства Москвы;(495) 361-78-07;37.642691;55.837366;{type=Point, coordinates=[37.642690999923, 55.837365999848]}
30;Велосипедная парковка № 37080 «Школа № 1380»;2757751;Северо-Восточный административный округ;район Северное Медведково;улица Тихомирова, дом 10;10;Департамент транспорта и развития дорожно-транспортной инфраструктуры города Москвы;ГКУ Центр организации дорожного движения Правительства Москвы;(495) 361-78-07;37.651831;55.884897;{type=Point, coordinates=[37.65183100041, 55.884897000173]}
75;Велосипедная парковка № 37123 «Гимназия № 1503»;2757753;Северо-Восточный административный округ;Алексеевский район;улица Константинова, дом 20, корпус 1;10;Департамент транспорта и развития дорожно-транспортной инфраструктуры города Москвы;ГКУ Центр организации дорожного движения Правительства Москвы;(495) 361-78-07;37.658057;55.817218;{type=Point, coordinates=[37.658056999963, 55.817217999872]}
76;Велосипедная парковка № 37093 «Школа надомного обучения № 410»;2757754;Северо-Восточный административный округ;район Ростокино;улица Докукина, дом 5;10;Департамент транспорта и развития дорожно-транспортной инфраструктуры города Москвы;ГКУ Центр организации дорожного движения Правительства Москвы;(495) 361-78-07;37.653677;55.837235;{type=Point, coordinates=[37.653676999691, 55.837235000206]}
77;Велосипедная парковка № 37163 «Спецшкола № 102»;2757755;Северо-Восточный административный округ;район Свиблово;1-й Ботанический проезд, дом 1Б;10;Департамент транспорта и развития дорожно-транспортной инфраструктуры города Москвы;ГКУ Центр организации дорожного движения Правительства Москвы;(495) 361-78-07;37.632576;55.850803;{type=Point, coordinates=[37.632576000367, 55.850803000105]}
78;Велосипедная парковка № 37023 «Школа № 297»;2757756;Северо-Восточный административный округ;район Свиблово;1-й Ботанический проезд, дом 2;10;Департамент транспорта и развития дорожно-транспортной инфраструктуры города Москвы;ГКУ Центр организации дорожного движения Правительства Москвы;(495) 361-78-07;37.635883;55.850863;{type=Point, coordinates=[37.635882999863, 55.850863000014]}
79;Велосипедная парковка № 37140 «Гимназия № 1577»;2757757;Северо-Восточный административный округ;Ярославский район;Ярославское шоссе, дом 8, корпус 6;10;Департамент транспорта и развития дорожно-транспортной инфраструктуры города Москвы;ГКУ Центр организации дорожного движения Правительства Москвы;(495) 361-78-07;37.690287;55.852798;{type=Point, coordinates=[37.690287000069, 55.852797999857]}
80;Велосипедная парковка № 37135 «Гимназия № 1558 им. Росалии де Кастро»;2757758;Северо-Восточный административный округ;Бабушкинский район;Чукотский проезд, дом 6;10;Департамент транспорта и развития дорожно-транспортной инфраструктуры города Москвы;ГКУ Центр организации дорожного движения Правительства Москвы;(495) 361-78-07;37.654481;55.868075;{type=Point, coordinates=[37.654480999955, 55.868075000206]}
81;Велосипедная парковка № 37136 «Гимназия № 1558 им. Росалии де Кастро»;2757759;Северо-Восточный административный округ;Бабушкинский район;Ленская улица, дом 28, корпус 1;10;Департамент транспорта и развития дорожно-транспортной инфраструктуры города Москвы;ГКУ Центр организации дорожного движения Правительства Москвы;(495) 361-78-07;37.654471;55.868044;{type=Point, coordinates=[37.654470999909, 55.868043999915]}
83;Велосипедная парковка № 37045 «Школа № 750»;2757761;Северо-Восточный административный округ;Ярославский район;Палехская улица, дом 8;10;Департамент транспорта и развития дорожно-транспортной инфраструктуры города Москвы;ГКУ Центр организации дорожного движения Правительства Москвы;(495) 361-78-07;37.695943;55.864923;{type=Point, coordinates=[37.69594299971, 55.864922999947]}
86;Велосипедная парковка № 37047 «Школа № 751» (1);2757764;Северо-Восточный административный округ;Лосиноостровский район;Таймырская улица, дом 5, строение 2;10;Департамент транспорта и развития дорожно-транспортной инфраструктуры города Москвы;ГКУ Центр организации дорожного движения Правительства Москвы;(495) 361-78-07;37.697449;55.884386;{type=Point, coordinates=[37.697449000131, 55.884386000213]}
87;Велосипедная парковка № 37049 «Школа № 751»;2757765;Северо-Восточный административный округ;Лосиноостровский район;Таймырская улица, дом 3;10;Департамент транспорта и развития дорожно-транспортной инфраструктуры города Москвы;ГКУ Центр организации дорожного движения Правительства Москвы;(495) 361-78-07;37.699025;55.883976;{type=Point, coordinates=[37.699024999974, 55.883976000196]}
88;Велосипедная парковка № 37051 «Школа № 753»;2757766;Северо-Восточный административный округ;район Северное Медведково;улица Грекова, дом 20;10;Департамент транспорта и развития дорожно-транспортной инфраструктуры города Москвы;ГКУ Центр организации дорожного движения Правительства Москвы;(495) 361-78-07;37.664243;55.891110;{type=Point, coordinates=[37.664243000233, 55.891109999796]}
89;Велосипедная парковка № 37056 «Школа № 760 им. Маресьева»;2757767;Северо-Восточный административный округ;Ярославский район;Ярославское шоссе, дом 147;10;Департамент транспорта и развития дорожно-транспортной инфраструктуры города Москвы;ГКУ Центр организации дорожного движения Правительства Москвы;(495) 361-78-07;37.719983;55.880987;{type=Point, coordinates=[37.719983000081, 55.880987000206]}
91;Велосипедная парковка № 37146 «Лицей информационных технологий № 1537»;2757768;Северо-Восточный административный округ;Ярославский район;улица Проходчиков, дом 9;10;Департамент транспорта и развития дорожно-транспортной инфраструктуры города Москвы;ГКУ Центр организации дорожного движения Правительства Москвы;(495) 361-78-07;37.718627;55.874295;{type=Point, coordinates=[37.718627000347, 55.874295000249]}
92;Велосипедная парковка № 37088 «Школа № 1955»;2757769;Северо-Восточный административный округ;Лосиноостровский район;Тайнинская улица, дом 15, корпус 3;10;Департамент транспорта и развития дорожно-транспортной инфраструктуры города Москвы;ГКУ Центр организации дорожного движения Правительства Москвы;(495) 361-78-07;37.683001;55.884724;{type=Point, coordinates=[37.683001000158, 55.884723999827]}
93;Велосипедная парковка № 37038 «Школа № 352» (1);2757770;Северо-Восточный административный округ;район Ростокино;Малахитовая улица, дом 15;10;Департамент транспорта и развития дорожно-транспортной инфраструктуры города Москвы;ГКУ Центр организации дорожного движения Правительства Москвы;(495) 361-78-07;37.664228;55.831717;{type=Point, coordinates=[37.664228000164, 55.831716999883]}
94;Велосипедная парковка № 37040 «Школа № 529»;2757771;Северо-Восточный административный округ;Лосиноостровский район;2-я Напрудная улица, дом 17;10;Департамент транспорта и развития дорожно-транспортной инфраструктуры города Москвы;ГКУ Центр организации дорожного движения Правительства Москвы;(495) 361-78-07;37.688892;55.879303;{type=Point, coordinates=[37.688891999976, 55.879302999896]}
95;Велосипедная парковка № 37053 «Школа № 756»;2757772;Северо-Восточный административный округ;район Северное Медведково;улица Грекова, дом 11А;10;Департамент транспорта и развития дорожно-транспортной инфраструктуры города Москвы;ГКУ Центр организации дорожного движения Правительства Москвы;(495) 361-78-07;37.659036;55.890495;{type=Point, coordinates=[37.65903600013, 55.890495000159]}
18;Велосипедная парковка № 37008 «Школа № 250»;2757774;Северо-Восточный административный округ;Бутырский район;улица Гончарова, дом 15Б;10;Департамент транспорта и развития дорожно-транспортной инфраструктуры города Москвы;ГКУ Центр организации дорожного движения Правительства Москвы;(495) 361-78-07;37.586505;55.817643;{type=Point, coordinates=[37.586505000011, 55.817642999868]}
20;Велосипедная парковка № 37166 «Московский кадетский корпус Героев Космоса № 1783»;2757776;Северо-Восточный административный округ;Останкинский район;3-я Новоостанкинская улица, дом 6;10;Департамент транспорта и развития дорожно-транспортной инфраструктуры города Москвы;ГКУ Центр организации дорожного движения Правительства Москвы;(495) 361-78-07;37.626826;55.817960;{type=Point, coordinates=[37.626826000116, 55.817960000195]}
21;Велосипедная парковка № 37116 «Центр образования № 1499»;2757777;Северо-Восточный административный округ;район Ростокино;Ростокинская улица, дом 3;10;Департамент транспорта и развития дорожно-транспортной инфраструктуры города Москвы;ГКУ Центр организации дорожного движения Правительства Москвы;(495) 361-78-07;37.660337;55.835977;{type=Point, coordinates=[37.660336999613, 55.835977000114]}
23;Велосипедная парковка № 37122 «Гимназия № 1503»;2757779;Северо-Восточный административный округ;Алексеевский район;улица Павла Корчагина, дом 18;10;Департамент транспорта и развития дорожно-транспортной инфраструктуры города Москвы;ГКУ Центр организации дорожного движения Правительства Москвы;(495) 361-78-07;37.662338;55.818512;{type=Point, coordinates=[37.662337999603, 55.818512000061]}
24;Велосипедная парковка № 37009 «Школа № 252»;2757780;Северо-Восточный административный округ;Бутырский район;улица Добролюбова, дом 14;10;Департамент транспорта и развития дорожно-транспортной инфраструктуры города Москвы;ГКУ Центр организации дорожного движения Правительства Москвы;(495) 361-78-07;37.594031;55.814858;{type=Point, coordinates=[37.594031000121, 55.814857999861]}
26;Велосипедная парковка № 37107 «Центр образования № 1459»;2757782;Северо-Восточный административный округ;район Отрадное;улица Декабристов, дом 26А;10;Департамент транспорта и развития дорожно-транспортной инфраструктуры города Москвы;ГКУ Центр организации дорожного движения Правительства Москвы;(495) 361-78-07;37.608788;55.860772;{type=Point, coordinates=[37.608787999891, 55.860771999931]}
27;Велосипедная парковка № 37062 «Школа № 952»;2757783;Северо-Восточный административный округ;район Отрадное;улица Декабристов, дом 8, корпус 4;10;Департамент транспорта и развития дорожно-транспортной инфраструктуры города Москвы;ГКУ Центр организации дорожного движения Правительства Москвы;(495) 361-78-07;37.596589;55.863392;{type=Point, coordinates=[37.596588999605, 55.863391999962]}
96;Велосипедная парковка № 37021 «Школа № 290»;2757785;Северо-Восточный административный округ;район Северное Медведково;улица Грекова, дом 11Б;10;Департамент транспорта и развития дорожно-транспортной инфраструктуры города Москвы;ГКУ Центр организации дорожного движения Правительства Москвы;(495) 361-78-07;37.656971;55.890503;{type=Point, coordinates=[37.656970999667, 55.890502999771]}
97;Велосипедная парковка № 37154 «Спецшкола - интернат»;2757786;Северо-Восточный административный округ;район Ростокино;2-й Сельскохозяйственный проезд, дом 2;10;Департамент транспорта и развития дорожно-транспортной инфраструктуры города Москвы;ГКУ Центр организации дорожного движения Правительства Москвы;(495) 361-78-07;37.645258;55.834821;{type=Point, coordinates=[37.645257999628, 55.83482099991]}
52;Велосипедная парковка № 37065 «Школа № 958»;2757788;Северо-Восточный административный округ;район Отрадное;Северный бульвар, дом 11;10;Департамент транспорта и развития дорожно-транспортной инфраструктуры города Москвы;ГКУ Центр организации дорожного движения Правительства Москвы;(495) 361-78-07;37.608500;55.868309;{type=Point, coordinates=[37.608500000011, 55.86830899986]}
53;Велосипедная парковка № 37037 «Школа № 332»;2757789;Северо-Восточный административный округ;район Бибирево;улица Корнейчука, дом 52А;10;Департамент транспорта и развития дорожно-транспортной инфраструктуры города Москвы;ГКУ Центр организации дорожного движения Правительства Москвы;(495) 361-78-07;37.625845;55.895538;{type=Point, coordinates=[37.6258450003, 55.895537999796]}
55;Велосипедная парковка № 37118 «Центр образования № 1682»;2757791;Северо-Восточный административный округ;район Бибирево;улица Корнейчука, дом 14А;10;Департамент транспорта и развития дорожно-транспортной инфраструктуры города Москвы;ГКУ Центр организации дорожного движения Правительства Москвы;(495) 361-78-07;37.609719;55.900882;{type=Point, coordinates=[37.609719000376, 55.900881999972]}
56;Велосипедная парковка № 37066 «Школа № 960»;2757792;Северо-Восточный административный округ;район Бибирево;улица Конёнкова, дом 4А;10;Департамент транспорта и развития дорожно-транспортной инфраструктуры города Москвы;ГКУ Центр организации дорожного движения Правительства Москвы;(495) 361-78-07;37.608144;55.888180;{type=Point, coordinates=[37.608144000358, 55.888179999753]}
57;Велосипедная парковка № 37005 «Школа № 245»;2757793;Северо-Восточный административный округ;район Бибирево;улица Конёнкова, дом 10А;10;Департамент транспорта и развития дорожно-транспортной инфраструктуры города Москвы;ГКУ Центр организации дорожного движения Правительства Москвы;(495) 361-78-07;37.612743;55.890883;{type=Point, coordinates=[37.612743000016, 55.890883000107]}
59;Велосипедная парковка № 37024 «Школа № 298»;2757794;Северо-Восточный административный округ;Лосиноостровский район;Изумрудная улица, дом 13, корпус 3;10;Департамент транспорта и развития дорожно-транспортной инфраструктуры города Москвы;ГКУ Центр организации дорожного движения Правительства Москвы;(495) 361-78-07;37.680794;55.872517;{type=Point, coordinates=[37.680794000303, 55.872516999877]}
60;Велосипедная парковка № 37149 «Спецшкола № 309»;2757795;Северо-Восточный административный округ;Бабушкинский район;улица Коминтерна, дом 16, корпус 1;10;Департамент транспорта и развития дорожно-транспортной инфраструктуры города Москвы;ГКУ Центр организации дорожного движения Правительства Москвы;(495) 361-78-07;37.679557;55.863480;{type=Point, coordinates=[37.679557000394, 55.863480000091]}
61;Велосипедная парковка № 37147 «Лицей № 1568»;2757796;Северо-Восточный административный округ;район Южное Медведково;проезд Шокальского, дом 7, корпус 2;10;Департамент транспорта и развития дорожно-транспортной инфраструктуры города Москвы;ГКУ Центр организации дорожного движения Правительства Москвы;(495) 361-78-07;37.642894;55.874799;{type=Point, coordinates=[37.642894000313, 55.874799000033]}
62;Велосипедная парковка № 37033 «Школа № 307»;2757797;Северо-Восточный административный округ;район Южное Медведково;проезд Шокальского, дом 11, корпус 2;10;Департамент транспорта и развития дорожно-транспортной инфраструктуры города Москвы;ГКУ Центр организации дорожного движения Правительства Москвы;(495) 361-78-07;37.642896;55.875222;{type=Point, coordinates=[37.642895999963, 55.875222000175]}
63;Велосипедная парковка № 37074 «Школа № 1237 им. Пабло Неруды»;2757798;Северо-Восточный административный округ;район Южное Медведково;проезд Шокальского, дом 11, корпус 3;10;Департамент транспорта и развития дорожно-транспортной инфраструктуры города Москвы;ГКУ Центр организации дорожного движения Правительства Москвы;(495) 361-78-07;37.641773;55.874424;{type=Point, coordinates=[37.641772999856, 55.874423999764]}
66;Велосипедная парковка № 37110 «Центр образования № 1482»;2757801;Северо-Восточный административный округ;район Южное Медведково;Заповедная улица, дом 12;10;Департамент транспорта и развития дорожно-транспортной инфраструктуры города Москвы;ГКУ Центр организации дорожного движения Правительства Москвы;(495) 361-78-07;37.636041;55.867181;{type=Point, coordinates=[37.636041000047, 55.867181000123]}
67;Велосипедная парковка № 37060 «Школа № 910»;2757802;Северо-Восточный административный округ;Бабушкинский район;Ленская улица, дом 6;10;Департамент транспорта и развития дорожно-транспортной инфраструктуры города Москвы;ГКУ Центр организации дорожного движения Правительства Москвы;(495) 361-78-07;37.671186;55.866220;{type=Point, coordinates=[37.671186000012, 55.866219999834]}
68;Велосипедная парковка № 37151 «Специальная начальная школа - детский сад № 1697»;2757803;Северо-Восточный административный округ;район Свиблово;улица Амундсена, дом 8, корпус 1;10;Департамент транспорта и развития дорожно-транспортной инфраструктуры города Москвы;ГКУ Центр организации дорожного движения Правительства Москвы;(495) 361-78-07;37.660587;55.853323;{type=Point, coordinates=[37.660586999858, 55.853323000234]}
69;Велосипедная парковка № 37144 «Прогимназия № 1779»;2757804;Северо-Восточный административный округ;район Свиблово;проезд Русанова, дом 15, строение 1;10;Департамент транспорта и развития дорожно-транспортной инфраструктуры города Москвы;ГКУ Центр организации дорожного движения Правительства Москвы;(495) 361-78-07;37.642921;55.854662;{type=Point, coordinates=[37.642921000077, 55.854662000141]}
70;Велосипедная парковка № 37142 «Прогимназия № 1779»;2757805;Северо-Восточный административный округ;район Свиблово;улица Седова, дом 12;10;Департамент транспорта и развития дорожно-транспортной инфраструктуры города Москвы;ГКУ Центр организации дорожного движения Правительства Москвы;(495) 361-78-07;37.639198;55.853009;{type=Point, coordinates=[37.639197999756, 55.85300899986]}
71;Велосипедная парковка № 37143 «Прогимназия № 1779»;2757806;Северо-Восточный административный округ;район Свиблово;улица Седова, дом 12, строение 3;10;Департамент транспорта и развития дорожно-транспортной инфраструктуры города Москвы;ГКУ Центр организации дорожного движения Правительства Москвы;(495) 361-78-07;37.639208;55.853042;{type=Point, coordinates=[37.639207999801, 55.853041999865]}
72;Велосипедная парковка № 37137 «Гимназия № 1565 Свиблово»;2757807;Северо-Восточный административный округ;район Свиблово;улица Седова, дом 4, корпус 1;10;Департамент транспорта и развития дорожно-транспортной инфраструктуры города Москвы;ГКУ Центр организации дорожного движения Правительства Москвы;(495) 361-78-07;37.642682;55.852916;{type=Point, coordinates=[37.642681999702, 55.852916000156]}
73;Велосипедная парковка № 37097 «Центр образования № 293»;2757808;Северо-Восточный административный округ;Алексеевский район;улица Касаткина, дом 1;10;Департамент транспорта и развития дорожно-транспортной инфраструктуры города Москвы;ГКУ Центр организации дорожного движения Правительства Москвы;(495) 361-78-07;37.652070;55.826980;{type=Point, coordinates=[37.652069999886, 55.826980000166]}
74;Велосипедная парковка № 37167 «Спортивно - адаптивная школа»;2757809;Северо-Восточный административный округ;Алексеевский район;улица Касаткина, дом 23;10;Департамент транспорта и развития дорожно-транспортной инфраструктуры города Москвы;ГКУ Центр организации дорожного движения Правительства Москвы;(495) 361-78-07;37.667592;55.823735;{type=Point, coordinates=[37.667591999562, 55.8237349998]}
98;Велосипедная парковка № 31036 «Школа № 1397»;2757810;Центральный административный округ;Таганский район;улица Земляной Вал, дом 44А;10;Департамент транспорта и развития дорожно-транспортной инфраструктуры города Москвы;ГКУ Центр организации дорожного движения Правительства Москвы;(495) 361-78-07;37.656277;55.753991;{type=Point, coordinates=[37.656276999906, 55.753990999931]}
99;Велосипедная парковка № 37159 «Спецшкола № 102»;2757811;Северо-Восточный административный округ;район Свиблово;проезд Нансена, дом 14;10;Департамент транспорта и развития дорожно-транспортной инфраструктуры города Москвы;ГКУ Центр организации дорожного движения Правительства Москвы;(495) 361-78-07;37.652058;55.854041;{type=Point, coordinates=[37.65205800019, 55.854041000026]}
41;Велосипедная парковка № 37091 «Школа надомного обучения № 265»;2757812;Северо-Восточный административный округ;район Отрадное;Алтуфьевское шоссе, дом 24А;10;Департамент транспорта и развития дорожно-транспортной инфраструктуры города Москвы;ГКУ Центр организации дорожного движения Правительства Москвы;(495) 361-78-07;37.587944;55.861687;{type=Point, coordinates=[37.587943999586, 55.861686999775]}
42;Велосипедная парковка № 37153 «Специальная начальная школа - детский сад № 1879»;2757813;Северо-Восточный административный округ;район Отрадное;улица Бестужевых, дом 27Б;10;Департамент транспорта и развития дорожно-транспортной инфраструктуры города Москвы;ГКУ Центр организации дорожного движения Правительства Москвы;(495) 361-78-07;37.614213;55.870720;{type=Point, coordinates=[37.614212999553, 55.870720000057]}
44;Велосипедная парковка № 37117 «Центр образования № 1682»;2757815;Северо-Восточный административный округ;район Бибирево;Белозерская улица, дом 7;10;Департамент транспорта и развития дорожно-транспортной инфраструктуры города Москвы;ГКУ Центр организации дорожного движения Правительства Москвы;(495) 361-78-07;37.611677;55.898552;{type=Point, coordinates=[37.611676999811, 55.898552000069]}
45;Велосипедная парковка № 37019 «Школа № 267»;2757816;Северо-Восточный административный округ;район Отрадное;улица Бестужевых, дом 23;10;Департамент транспорта и развития дорожно-транспортной инфраструктуры города Москвы;ГКУ Центр организации дорожного движения Правительства Москвы;(495) 361-78-07;37.609641;55.871956;{type=Point, coordinates=[37.60964099966, 55.871955999972]}
46;Велосипедная парковка № 37084 «Школа № 1413»;2757817;Северо-Восточный административный округ;район Бибирево;Белозерская улица, дом 15;10;Департамент транспорта и развития дорожно-транспортной инфраструктуры города Москвы;ГКУ Центр организации дорожного движения Правительства Москвы;(495) 361-78-07;37.617197;55.896850;{type=Point, coordinates=[37.617196999908, 55.896850000038]}
47;Велосипедная парковка № 37134 «Гимназия № 1554»;2757818;Северо-Восточный административный округ;район Отрадное;улица Бестужевых, дом 10А;10;Департамент транспорта и развития дорожно-транспортной инфраструктуры города Москвы;ГКУ Центр организации дорожного движения Правительства Москвы;(495) 361-78-07;37.606508;55.869281;{type=Point, coordinates=[37.606508000241, 55.869280999812]}
48;Велосипедная парковка № 37141 «Государственная столичная гимназия»;2757819;Северо-Восточный административный округ;район Бибирево;Белозерская улица, дом 12;10;Департамент транспорта и развития дорожно-транспортной инфраструктуры города Москвы;ГКУ Центр организации дорожного движения Правительства Москвы;(495) 361-78-07;37.616369;55.895965;{type=Point, coordinates=[37.616369000253, 55.895964999881]}
49;Велосипедная парковка № 37057 «Школа № 761»;2757820;Северо-Восточный административный округ;район Отрадное;улица Бестужевых, дом 1;10;Департамент транспорта и развития дорожно-транспортной инфраструктуры города Москвы;ГКУ Центр организации дорожного движения Правительства Москвы;(495) 361-78-07;37.597187;55.868904;{type=Point, coordinates=[37.597187000005, 55.868904000177]}
297;Велосипедная парковка № 23018 «Ресторан Иль Патио»;2757822;Юго-Западный административный округ;район Северное Бутово;бульвар Дмитрия Донского, дом 11;10;Департамент транспорта и развития дорожно-транспортной инфраструктуры города Москвы;ГКУ Центр организации дорожного движения Правительства Москвы;(495) 361-78-07;37.576295;55.567109;{type=Point, coordinates=[37.576295000019, 55.567109000042]}
317;Велосипедная парковка № 23023 «ТЦ Квадрат»;2757823;Юго-Западный административный округ;район Северное Бутово;Старокачаловская улица, дом 5;10;Департамент транспорта и развития дорожно-транспортной инфраструктуры города Москвы;ГКУ Центр организации дорожного движения Правительства Москвы;(495) 361-78-07;37.581410;55.570100;{type=Point, coordinates=[37.581410000061, 55.570100000211]}
376;Велосипедная парковка № 25001 «Музей - усадьба Люблино»;2757824;Юго-Восточный административный округ;район Люблино;Летняя улица, дом 1, строение 1;10;Департамент транспорта и развития дорожно-транспортной инфраструктуры города Москвы;ГКУ Центр организации дорожного движения Правительства Москвы;(495) 361-78-07;37.743323;55.688530;{type=Point, coordinates=[37.743322999946, 55.688529999784]}
401;Велосипедная парковка № 31007 «Центр образования № 1240»;2757825;Центральный административный округ;Пресненский район;Большой Кондратьевский переулок, дом 3;10;Департамент транспорта и развития дорожно-транспортной инфраструктуры города Москвы;ГКУ Центр организации дорожного движения Правительства Москвы;(495) 361-78-07;37.581962;55.772760;{type=Point, coordinates=[37.58196200043, 55.772759999842]}
402;Велосипедная парковка № 31010 «Школа № 1278»;2757826;Центральный административный округ;Тверской район;улица Петровка, дом 23/10, строение 18;10;Департамент транспорта и развития дорожно-транспортной инфраструктуры города Москвы;ГКУ Центр организации дорожного движения Правительства Москвы;(495) 361-78-07;37.614441;55.765001;{type=Point, coordinates=[37.614441000057, 55.765001000215]}
403;Велосипедная парковка № 31012 «Школа № 1388»;2757827;Центральный административный округ;Тверской район;Долгоруковская улица, дом 6, строение 2;10;Департамент транспорта и развития дорожно-транспортной инфраструктуры города Москвы;ГКУ Центр организации дорожного движения Правительства Москвы;(495) 361-78-07;37.604760;55.776064;{type=Point, coordinates=[37.604759999971, 55.776064000101]}
404;Велосипедная парковка № 31013 «Центр образования № 1429»;2757828;Центральный административный округ;Басманный район;Переведеновский переулок, дом 11;10;Департамент транспорта и развития дорожно-транспортной инфраструктуры города Москвы;ГКУ Центр организации дорожного движения Правительства Москвы;(495) 361-78-07;37.686703;55.778779;{type=Point, coordinates=[37.686702999665, 55.778778999778]}
156;Велосипедная парковка № 32001 «Школа № 71»;2757829;Западный административный округ;район Фили-Давыдково;Большая Филёвская улица, дом 39;10;Департамент транспорта и развития дорожно-транспортной инфраструктуры города Москвы;ГКУ Центр организации дорожного движения Правительства Москвы;(495) 361-78-07;37.477930;55.741669;{type=Point, coordinates=[37.477930000126, 55.741668999885]}
165;Велосипедная парковка № 32002 «Школа № 79»;2757830;Западный административный округ;район Фили-Давыдково;улица Артамонова, дом 2;10;Департамент транспорта и развития дорожно-транспортной инфраструктуры города Москвы;ГКУ Центр организации дорожного движения Правительства Москвы;(495) 361-78-07;37.460328;55.720163;{type=Point, coordinates=[37.460327999919, 55.720163000234]}
166;Велосипедная парковка № 32003 «Школа № 97»;2757831;Западный административный округ;район Фили-Давыдково;Кременчугская улица, дом 46;10;Департамент транспорта и развития дорожно-транспортной инфраструктуры города Москвы;ГКУ Центр организации дорожного движения Правительства Москвы;(495) 361-78-07;37.456393;55.711857;{type=Point, coordinates=[37.456392999886, 55.711857000089]}
167;Велосипедная парковка № 32004 «Школа № 97»;2757832;Западный административный округ;район Очаково-Матвеевское;Очаковское шоссе, дом 10, корпус 1;10;Департамент транспорта и развития дорожно-транспортной инфраструктуры города Москвы;ГКУ Центр организации дорожного движения Правительства Москвы;(495) 361-78-07;37.457612;55.695427;{type=Point, coordinates=[37.457612000251, 55.695427000145]}
168;Велосипедная парковка № 32017 «Московский Психолого - Педагогический Университет»;2757833;Западный административный округ;район Кунцево;улица Василия Ботылёва, дом 31;10;Департамент транспорта и развития дорожно-транспортной инфраструктуры города Москвы;ГКУ Центр организации дорожного движения Правительства Москвы;(495) 361-78-07;37.352819;55.786041;{type=Point, coordinates=[37.35281900024, 55.786040999972]}
157;Велосипедная парковка № 32018 «Банковский колледж № 45»;2757834;Западный административный округ;район Кунцево;Бобруйская улица, дом 23;10;Департамент транспорта и развития дорожно-транспортной инфраструктуры города Москвы;ГКУ Центр организации дорожного движения Правительства Москвы;(495) 361-78-07;37.394455;55.738817;{type=Point, coordinates=[37.394455000072, 55.738816999948]}
303;Велосипедная парковка № 33001 «Школа № 9»;2757835;Юго-Западный административный округ;Обручевский район;улица Новаторов, дом 34, корпус 1;10;Департамент транспорта и развития дорожно-транспортной инфраструктуры города Москвы;ГКУ Центр организации дорожного движения Правительства Москвы;(495) 361-78-07;37.525419;55.663670;{type=Point, coordinates=[37.525419000142, 55.663670000194]}
154;Велосипедная парковка № 33002 «Школа № 18»;2757836;Юго-Западный административный округ;район Ясенево;проезд Карамзина, дом 9, корпус 3;10;Департамент транспорта и развития дорожно-транспортной инфраструктуры города Москвы;ГКУ Центр организации дорожного движения Правительства Москвы;(495) 361-78-07;37.538288;55.592686;{type=Point, coordinates=[37.538287999899, 55.592686000035]}
304;Велосипедная парковка № 33003 «Школа - интернат № 19»;2757837;Юго-Западный административный округ;район Черёмушки;Новочерёмушкинская улица, дом 48;10;Департамент транспорта и развития дорожно-транспортной инфраструктуры города Москвы;ГКУ Центр организации дорожного движения Правительства Москвы;(495) 361-78-07;37.566648;55.672507;{type=Point, coordinates=[37.566648000268, 55.672507000026]}
141;Велосипедная парковка № 33005 «Школа № 108»;2757838;Юго-Западный административный округ;район Ясенево;Вильнюсская улица, дом 14;10;Департамент транспорта и развития дорожно-транспортной инфраструктуры города Москвы;ГКУ Центр организации дорожного движения Правительства Москвы;(495) 361-78-07;37.517489;55.598123;{type=Point, coordinates=[37.5174889998, 55.598122999832]}
146;Велосипедная парковка № 33006 «Центр образования № 109»;2757839;Юго-Западный административный округ;район Тёплый Стан;улица Академика Бакулева, дом 20;10;Департамент транспорта и развития дорожно-транспортной инфраструктуры города Москвы;ГКУ Центр организации дорожного движения Правительства Москвы;(495) 361-78-07;37.476006;55.640487;{type=Point, coordinates=[37.476006000129, 55.640487000001]}
144;Велосипедная парковка № 33007 «Школа № 115»;2757840;Юго-Западный административный округ;район Коньково;улица Бутлерова, дом 5Б, строение 1;10;Департамент транспорта и развития дорожно-транспортной инфраструктуры города Москвы;ГКУ Центр организации дорожного движения Правительства Москвы;(495) 361-78-07;37.526969;55.653237;{type=Point, coordinates=[37.526969000045, 55.653236999754]}
307;Велосипедная парковка № 33008 «Центр образования № 118»;2757841;Юго-Западный административный округ;Ломоносовский район;улица Строителей, дом 15;10;Департамент транспорта и развития дорожно-транспортной инфраструктуры города Москвы;ГКУ Центр организации дорожного движения Правительства Москвы;(495) 361-78-07;37.529408;55.687113;{type=Point, coordinates=[37.529407999704, 55.687113000237]}
139;Велосипедная парковка № 33009 «Школа № 121»;2757842;Юго-Западный административный округ;Обручевский район;улица Гарибальди, дом 28, корпус 3;10;Департамент транспорта и развития дорожно-транспортной инфраструктуры города Москвы;ГКУ Центр организации дорожного движения Правительства Москвы;(495) 361-78-07;37.549177;55.669744;{type=Point, coordinates=[37.549176999582, 55.669743999943]}
151;Велосипедная парковка № 33010 «Школа № 517»;2757843;Юго-Западный административный округ;район Котловка;Нахимовский проспект, дом 10;10;Департамент транспорта и развития дорожно-транспортной инфраструктуры города Москвы;ГКУ Центр организации дорожного движения Правительства Москвы;(495) 361-78-07;37.595118;55.667930;{type=Point, coordinates=[37.595118000242, 55.66793000002]}
138;Велосипедная парковка № 33011 «Школа № 524»;2757844;Юго-Западный административный округ;район Зюзино;Балаклавский проспект, дом 32А;10;Департамент транспорта и развития дорожно-транспортной инфраструктуры города Москвы;ГКУ Центр организации дорожного движения Правительства Москвы;(495) 361-78-07;37.584056;55.646183;{type=Point, coordinates=[37.584056000307, 55.646183000249]}
147;Велосипедная парковка № 33012 «Школа № 536» (1);2757845;Юго-Западный административный округ;район Зюзино;Азовская улица, дом 41;10;Департамент транспорта и развития дорожно-транспортной инфраструктуры города Москвы;ГКУ Центр организации дорожного движения Правительства Москвы;(495) 361-78-07;37.596084;55.644324;{type=Point, coordinates=[37.59608399999, 55.644324000214]}
315;Велосипедная парковка № 33013 «Школа № 568»;2757846;Юго-Западный административный округ;район Котловка;Нагорная улица, дом 32, корпус 3;10;Департамент транспорта и развития дорожно-транспортной инфраструктуры города Москвы;ГКУ Центр организации дорожного движения Правительства Москвы;(495) 361-78-07;37.595966;55.675642;{type=Point, coordinates=[37.595965999989, 55.67564199984]}
302;Велосипедная парковка № 33014 «Гимназия № 625»;2757847;Юго-Западный административный округ;Академический район;улица Шверника, дом 17, корпус 2;10;Департамент транспорта и развития дорожно-транспортной инфраструктуры города Москвы;ГКУ Центр организации дорожного движения Правительства Москвы;(495) 361-78-07;37.593364;55.691904;{type=Point, coordinates=[37.593364000124, 55.691903999748]}
149;Велосипедная парковка № 33015 «Школа № 626»;2757848;Юго-Западный административный округ;район Котловка;Севастопольский проспект, дом 43А;10;Департамент транспорта и развития дорожно-транспортной инфраструктуры города Москвы;ГКУ Центр организации дорожного движения Правительства Москвы;(495) 361-78-07;37.589700;55.671923;{type=Point, coordinates=[37.589700000252, 55.671923000003]}
177;Велосипедная парковка № 33016 «Школа № 765»;2757849;Юго-Западный административный округ;район Ясенево;Литовский бульвар, дом 10, корпус 2;10;Департамент транспорта и развития дорожно-транспортной инфраструктуры города Москвы;ГКУ Центр организации дорожного движения Правительства Москвы;(495) 361-78-07;37.530033;55.610787;{type=Point, coordinates=[37.530032999867, 55.610787000087]}
326;Велосипедная парковка № 33017 «Школа № 789»;2757850;Юго-Западный административный округ;район Ясенево;Голубинская улица, дом 5, корпус 3;10;Департамент транспорта и развития дорожно-транспортной инфраструктуры города Москвы;ГКУ Центр организации дорожного движения Правительства Москвы;(495) 361-78-07;37.517743;55.606054;{type=Point, coordinates=[37.517743000243, 55.606053999951]}
136;Велосипедная парковка № 33018 «Школа № 863»;2757851;Юго-Западный административный округ;район Коньково;улица Введенского, дом 27А;10;Департамент транспорта и развития дорожно-транспортной инфраструктуры города Москвы;ГКУ Центр организации дорожного движения Правительства Москвы;(495) 361-78-07;37.534654;55.634585;{type=Point, coordinates=[37.534654000164, 55.634584999833]}
142;Велосипедная парковка № 33019 «Школа № 1020»;2757852;Юго-Западный административный округ;район Ясенево;Вильнюсская улица, дом 12;10;Департамент транспорта и развития дорожно-транспортной инфраструктуры города Москвы;ГКУ Центр организации дорожного движения Правительства Москвы;(495) 361-78-07;37.517637;55.599415;{type=Point, coordinates=[37.517636999938, 55.59941499975]}
143;Велосипедная парковка № 33020 «Школа № 1086»;2757853;Юго-Западный административный округ;район Коньково;улица Введенского, дом 32А;10;Департамент транспорта и развития дорожно-транспортной инфраструктуры города Москвы;ГКУ Центр организации дорожного движения Правительства Москвы;(495) 361-78-07;37.528042;55.635075;{type=Point, coordinates=[37.528041999923, 55.635074999749]}
309;Велосипедная парковка № 33021 «Школа № 1100»;2757854;Юго-Западный административный округ;Обручевский район;улица Академика Челомея, дом 6А;10;Департамент транспорта и развития дорожно-транспортной инфраструктуры города Москвы;ГКУ Центр организации дорожного движения Правительства Москвы;(495) 361-78-07;37.532470;55.662904;{type=Point, coordinates=[37.532469999876, 55.662903999809]}
296;Велосипедная парковка № 23019 «Кафе Му - му»;2757855;Юго-Западный административный округ;район Северное Бутово;бульвар Дмитрия Донского, дом 2, корпус 1;10;Департамент транспорта и развития дорожно-транспортной инфраструктуры города Москвы;ГКУ Центр организации дорожного движения Правительства Москвы;(495) 361-78-07;37.576046;55.570200;{type=Point, coordinates=[37.576045999599, 55.57020000002]}
293;Велосипедная парковка № 23022 «Магазин Пятёрочка»;2757856;Юго-Западный административный округ;район Северное Бутово;бульвар Дмитрия Донского, дом 9, корпус 1;10;Департамент транспорта и развития дорожно-транспортной инфраструктуры города Москвы;ГКУ Центр организации дорожного движения Правительства Москвы;(495) 361-78-07;37.577071;55.568297;{type=Point, coordinates=[37.577070999796, 55.568296999892]}
214;Велосипедная парковка № 34100 «Школа № 949»;2757857;Южный административный округ;район Орехово-Борисово Южное;Воронежская улица, дом 46, корпус 3;10;Департамент транспорта и развития дорожно-транспортной инфраструктуры города Москвы;ГКУ Центр организации дорожного движения Правительства Москвы;(495) 361-78-07;37.753564;55.609304;{type=Point, coordinates=[37.753563999899, 55.609303999812]}
219;Велосипедная парковка № 34033 «Центр образования № 556»;2757858;Южный административный округ;район Чертаново Центральное;Днепропетровская улица, дом 16Б;10;Департамент транспорта и развития дорожно-транспортной инфраструктуры города Москвы;ГКУ Центр организации дорожного движения Правительства Москвы;(495) 361-78-07;37.582744;55.617793;{type=Point, coordinates=[37.582744000054, 55.617792999769]}
345;Велосипедная парковка № 34034 «Школа № 566»;2757859;Южный административный округ;Донской район;Загородное шоссе, дом 8А;10;Департамент транспорта и развития дорожно-транспортной инфраструктуры города Москвы;ГКУ Центр организации дорожного движения Правительства Москвы;(495) 361-78-07;37.604222;55.693305;{type=Point, coordinates=[37.604221999845, 55.693304999924]}
220;Велосипедная парковка № 34035 «Школа № 567»;2757860;Южный административный округ;Нагорный район;Черноморский бульвар, дом 8;10;Департамент транспорта и развития дорожно-транспортной инфраструктуры города Москвы;ГКУ Центр организации дорожного движения Правительства Москвы;(495) 361-78-07;37.612473;55.645841;{type=Point, coordinates=[37.612472999679, 55.645841000022]}
355;Велосипедная парковка № 34036 «Школа № 573»;2757861;Южный административный округ;Даниловский район;5-й Рощинский проезд, дом 4;10;Департамент транспорта и развития дорожно-транспортной инфраструктуры города Москвы;ГКУ Центр организации дорожного движения Правительства Москвы;(495) 361-78-07;37.611924;55.710560;{type=Point, coordinates=[37.611923999683, 55.710559999879]}
228;Велосипедная парковка № 34037 «Школа № 575»;2757862;Южный административный округ;район Орехово-Борисово Южное;Домодедовская улица, дом 44, корпус 2;10;Департамент транспорта и развития дорожно-транспортной инфраструктуры города Москвы;ГКУ Центр организации дорожного движения Правительства Москвы;(495) 361-78-07;37.713189;55.601047;{type=Point, coordinates=[37.713189000265, 55.601047000106]}
190;Велосипедная парковка № 34038 «Школа № 581»;2757863;Южный административный округ;район Орехово-Борисово Южное;Ясеневая улица, дом 21, корпус 3;10;Департамент транспорта и развития дорожно-транспортной инфраструктуры города Москвы;ГКУ Центр организации дорожного движения Правительства Москвы;(495) 361-78-07;37.730593;55.605725;{type=Point, coordinates=[37.730593000106, 55.605725000242]}
337;Велосипедная парковка № 34079 «Школа № 915»;2757864;Южный административный округ;район Бирюлёво Восточное;Бирюлёвская улица, дом 50;10;Департамент транспорта и развития дорожно-транспортной инфраструктуры города Москвы;ГКУ Центр организации дорожного движения Правительства Москвы;(495) 361-78-07;37.665859;55.584830;{type=Point, coordinates=[37.665859000258, 55.584829999937]}
250;Велосипедная парковка № 34080 «Школа № 916»;2757865;Южный административный округ;район Орехово-Борисово Северное;Ореховый бульвар, дом 11, корпус 3;10;Департамент транспорта и развития дорожно-транспортной инфраструктуры города Москвы;ГКУ Центр организации дорожного движения Правительства Москвы;(495) 361-78-07;37.713033;55.611665;{type=Point, coordinates=[37.713032999731, 55.61166499987]}
344;Велосипедная парковка № 34081 «Школа № 924»;2757866;Южный административный округ;район Чертаново Южное;улица Газопровод, дом 5А;10;Департамент транспорта и развития дорожно-транспортной инфраструктуры города Москвы;ГКУ Центр организации дорожного движения Правительства Москвы;(495) 361-78-07;37.605469;55.591409;{type=Point, coordinates=[37.6054689998, 55.591408999804]}
216;Велосипедная парковка № 34082 «Школа № 925»;2757867;Южный административный округ;район Бирюлёво Западное;Востряковский проезд, дом 5Б;10;Департамент транспорта и развития дорожно-транспортной инфраструктуры города Москвы;ГКУ Центр организации дорожного движения Правительства Москвы;(495) 361-78-07;37.643673;55.583529;{type=Point, coordinates=[37.643672999564, 55.583529000013]}
354;Велосипедная парковка № 34085 «Школа № 933»;2757868;Южный административный округ;район Бирюлёво Западное;Медынская улица, дом 9А;10;Департамент транспорта и развития дорожно-транспортной инфраструктуры города Москвы;ГКУ Центр организации дорожного движения Правительства Москвы;(495) 361-78-07;37.652071;55.582087;{type=Point, coordinates=[37.652070999711, 55.582087000182]}
353;Велосипедная парковка № 34086 «Школа № 933»;2757869;Южный административный округ;район Бирюлёво Западное;Медынская улица, дом 7А;10;Департамент транспорта и развития дорожно-транспортной инфраструктуры города Москвы;ГКУ Центр организации дорожного движения Правительства Москвы;(495) 361-78-07;37.649600;55.583298;{type=Point, coordinates=[37.649600000266, 55.583297999756]}
271;Велосипедная парковка № 34087 «Школа № 935»;2757870;Южный административный округ;район Бирюлёво Восточное;Липецкая улица, дом 15, корпус 2;10;Департамент транспорта и развития дорожно-транспортной инфраструктуры города Москвы;ГКУ Центр организации дорожного движения Правительства Москвы;(495) 361-78-07;37.688360;55.581578;{type=Point, coordinates=[37.688359999698, 55.581578000153]}
248;Велосипедная парковка № 34088 «Центр образования № 936»;2757871;Южный административный округ;район Зябликово;Задонский проезд, дом 34, корпус 3;10;Департамент транспорта и развития дорожно-транспортной инфраструктуры города Москвы;ГКУ Центр организации дорожного движения Правительства Москвы;(495) 361-78-07;37.755467;55.620830;{type=Point, coordinates=[37.75546699998, 55.62082999987]}
163;Велосипедная парковка № 32008 «Школа № 1214»;2757872;Западный административный округ;район Раменки;Мосфильмовская улица, дом 21;10;Департамент транспорта и развития дорожно-транспортной инфраструктуры города Москвы;ГКУ Центр организации дорожного движения Правительства Москвы;(495) 361-78-07;37.514447;55.714270;{type=Point, coordinates=[37.514446999719, 55.714270000178]}
174;Велосипедная парковка № 32009 «Центр образования № 1329»;2757873;Западный административный округ;район Тропарёво-Никулино;Никулинская улица, дом 10;10;Департамент транспорта и развития дорожно-транспортной инфраструктуры города Москвы;ГКУ Центр организации дорожного движения Правительства Москвы;(495) 361-78-07;37.464756;55.669120;{type=Point, coordinates=[37.464755999872, 55.669119999748]}
135;Велосипедная парковка № 32010 «Центр образования № 1437»;2757874;Западный административный округ;район Ново-Переделкино;улица Федосьино, дом 16, корпус 3;10;Департамент транспорта и развития дорожно-транспортной инфраструктуры города Москвы;ГКУ Центр организации дорожного движения Правительства Москвы;(495) 361-78-07;37.337295;55.639736;{type=Point, coordinates=[37.337295000016, 55.639735999947]}
183;Велосипедная парковка № 32011 «Центр образования № 1471»;2757875;Западный административный округ;район Крылатское;Крылатская улица, дом 25;10;Департамент транспорта и развития дорожно-транспортной инфраструктуры города Москвы;ГКУ Центр организации дорожного движения Правительства Москвы;(495) 361-78-07;37.413927;55.770699;{type=Point, coordinates=[37.41392699985, 55.77069900009]}
159;Велосипедная парковка № 32012 «Гимназия № 1567»;2757876;Западный административный округ;район Дорогомилово;Кутузовский проезд, дом 10, строение 1;10;Департамент транспорта и развития дорожно-транспортной инфраструктуры города Москвы;ГКУ Центр организации дорожного движения Правительства Москвы;(495) 361-78-07;37.523053;55.741656;{type=Point, coordinates=[37.523053000278, 55.741655999752]}
164;Велосипедная парковка № 32014 «Лицей № 1586»;2757877;Западный административный округ;район Раменки;улица Дружбы, дом 8;10;Департамент транспорта и развития дорожно-транспортной инфраструктуры города Москвы;ГКУ Центр организации дорожного движения Правительства Москвы;(495) 361-78-07;37.513253;55.709395;{type=Point, coordinates=[37.513253000366, 55.709394999955]}
158;Велосипедная парковка № 32015 «Гимназия № 1593»;2757878;Западный административный округ;район Крылатское;улица Крылатские Холмы, дом 28, корпус 1;10;Департамент транспорта и развития дорожно-транспортной инфраструктуры города Москвы;ГКУ Центр организации дорожного движения Правительства Москвы;(495) 361-78-07;37.414947;55.764807;{type=Point, coordinates=[37.414947000024, 55.764806999816]}
137;Велосипедная парковка № 32016 «Гимназия № 1596»;2757879;Западный административный округ;район Ново-Переделкино;Приречная улица, дом 1;10;Департамент транспорта и развития дорожно-транспортной инфраструктуры города Москвы;ГКУ Центр организации дорожного движения Правительства Москвы;(495) 361-78-07;37.371125;55.641833;{type=Point, coordinates=[37.371125000254, 55.641832999891]}
267;Велосипедная парковка № 34089 «Школа № 937»;2757880;Южный административный округ;район Орехово-Борисово Северное;улица Маршала Захарова, дом 25, корпус 2;10;Департамент транспорта и развития дорожно-транспортной инфраструктуры города Москвы;ГКУ Центр организации дорожного движения Правительства Москвы;(495) 361-78-07;37.701211;55.619607;{type=Point, coordinates=[37.701210999912, 55.619606999923]}
266;Велосипедная парковка № 34090 «Школа № 937»;2757881;Южный административный округ;район Орехово-Борисово Северное;улица Маршала Захарова, дом 25, корпус 2, строение 2;10;Департамент транспорта и развития дорожно-транспортной инфраструктуры города Москвы;ГКУ Центр организации дорожного движения Правительства Москвы;(495) 361-78-07;37.700743;55.619079;{type=Point, coordinates=[37.700743000107, 55.619079000145]}
352;Велосипедная парковка № 34091 «Школа № 937»;2757882;Южный административный округ;район Орехово-Борисово Северное;улица Маршала Захарова, дом 25;10;Департамент транспорта и развития дорожно-транспортной инфраструктуры города Москвы;ГКУ Центр организации дорожного движения Правительства Москвы;(495) 361-78-07;37.699527;55.618748;{type=Point, coordinates=[37.699527000114, 55.618747999939]}
201;Велосипедная парковка № 34092 «Школа № 939»;2757883;Южный административный округ;район Орехово-Борисово Северное;Борисовский проезд, дом 40, корпус 2;10;Департамент транспорта и развития дорожно-транспортной инфраструктуры города Москвы;ГКУ Центр организации дорожного движения Правительства Москвы;(495) 361-78-07;37.725744;55.616074;{type=Point, coordinates=[37.725744000203, 55.616073999991]}
277;Велосипедная парковка № 34093 «Школа № 941»;2757884;Южный административный округ;район Бирюлёво Восточное;Лебедянская улица, дом 14, корпус 3;10;Департамент транспорта и развития дорожно-транспортной инфраструктуры города Москвы;ГКУ Центр организации дорожного движения Правительства Москвы;(495) 361-78-07;37.672739;55.584611;{type=Point, coordinates=[37.672739000288, 55.584611000134]}
244;Велосипедная парковка № 34094 «Школа № 942»;2757885;Южный административный округ;район Бирюлёво Восточное;Загорьевский проезд, дом 7, корпус 3;10;Департамент транспорта и развития дорожно-транспортной инфраструктуры города Москвы;ГКУ Центр организации дорожного движения Правительства Москвы;(495) 361-78-07;37.666886;55.574839;{type=Point, coordinates=[37.666886000105, 55.574838999808]}
257;Велосипедная парковка № 34095 «Центр образования № 943»;2757886;Южный административный округ;район Зябликово;улица Мусы Джалиля, дом 29, корпус 2;10;Департамент транспорта и развития дорожно-транспортной инфраструктуры города Москвы;ГКУ Центр организации дорожного движения Правительства Москвы;(495) 361-78-07;37.746390;55.617628;{type=Point, coordinates=[37.746390000141, 55.617627999847]}
247;Велосипедная парковка № 34096 «Школа № 945»;2757887;Южный административный округ;район Зябликово;Ореховый бульвар, дом 37, корпус 4;10;Департамент транспорта и развития дорожно-транспортной инфраструктуры города Москвы;ГКУ Центр организации дорожного движения Правительства Москвы;(495) 361-78-07;37.736766;55.615197;{type=Point, coordinates=[37.736765999956, 55.615196999931]}
276;Велосипедная парковка № 34097 «Школа № 947»;2757888;Южный административный округ;район Бирюлёво Восточное;Лебедянская улица, дом 16;10;Департамент транспорта и развития дорожно-транспортной инфраструктуры города Москвы;ГКУ Центр организации дорожного движения Правительства Москвы;(495) 361-78-07;37.674111;55.584997;{type=Point, coordinates=[37.674110999917, 55.584997000155]}
286;Велосипедная парковка № 34098 «Школа № 947»;2757889;Южный административный округ;район Бирюлёво Восточное;Липецкая улица, дом 44;10;Департамент транспорта и развития дорожно-транспортной инфраструктуры города Москвы;ГКУ Центр организации дорожного движения Правительства Москвы;(495) 361-78-07;37.677702;55.582642;{type=Point, coordinates=[37.677701999994, 55.582642000234]}
274;Велосипедная парковка № 34099 «Школа № 948»;2757890;Южный административный округ;район Бирюлёво Восточное;Лебедянская улица, дом 26, корпус 4;10;Департамент транспорта и развития дорожно-транспортной инфраструктуры города Москвы;ГКУ Центр организации дорожного движения Правительства Москвы;(495) 361-78-07;37.689124;55.583418;{type=Point, coordinates=[37.689123999779, 55.583418000092]}
212;Велосипедная парковка № 34101 «Школа № 949»;2757891;Южный административный округ;район Орехово-Борисово Южное;Воронежская улица, дом 46, корпус 2;10;Департамент транспорта и развития дорожно-транспортной инфраструктуры города Москвы;ГКУ Центр организации дорожного движения Правительства Москвы;(495) 361-78-07;37.751250;55.609139;{type=Point, coordinates=[37.751249999914, 55.609139000191]}
187;Велосипедная парковка № 34102 «Центр образования № 975»;2757892;Южный административный округ;район Братеево;Алма - Атинская улица, дом 9, корпус 3;10;Департамент транспорта и развития дорожно-транспортной инфраструктуры города Москвы;ГКУ Центр организации дорожного движения Правительства Москвы;(495) 361-78-07;37.774272;55.639463;{type=Point, coordinates=[37.774271999761, 55.639462999983]}
253;Велосипедная парковка № 34103 «Школа № 978»;2757893;Южный административный округ;район Нагатино-Садовники;1-й Нагатинский проезд, дом 16;10;Департамент транспорта и развития дорожно-транспортной инфраструктуры города Москвы;ГКУ Центр организации дорожного движения Правительства Москвы;(495) 361-78-07;37.631985;55.676757;{type=Point, coordinates=[37.63198499964, 55.676756999977]}
254;Велосипедная парковка № 34104 «Школа № 978»;2757894;Южный административный округ;район Нагатино-Садовники;Нагатинская набережная, дом 12, корпус 1;10;Департамент транспорта и развития дорожно-транспортной инфраструктуры города Москвы;ГКУ Центр организации дорожного движения Правительства Москвы;(495) 361-78-07;37.643427;55.681645;{type=Point, coordinates=[37.643427000415, 55.681644999798]}
222;Велосипедная парковка № 34105 «Школа № 979»;2757895;Южный административный округ;район Орехово-Борисово Южное;Тамбовская улица, дом 10;10;Департамент транспорта и развития дорожно-транспортной инфраструктуры города Москвы;ГКУ Центр организации дорожного движения Правительства Москвы;(495) 361-78-07;37.746020;55.602961;{type=Point, coordinates=[37.746020000245, 55.60296100021]}
280;Велосипедная парковка № 34106 «Школа № 980»;2757896;Южный административный округ;район Зябликово;Кустанайская улица, дом 10, корпус 2;10;Департамент транспорта и развития дорожно-транспортной инфраструктуры города Москвы;ГКУ Центр организации дорожного движения Правительства Москвы;(495) 361-78-07;37.751830;55.617944;{type=Point, coordinates=[37.751829999872, 55.617943999925]}
279;Велосипедная парковка № 34107 «Школа № 982»;2757897;Южный административный округ;район Москворечье-Сабурово;улица Кошкина, дом 13, корпус 2;10;Департамент транспорта и развития дорожно-транспортной инфраструктуры города Москвы;ГКУ Центр организации дорожного движения Правительства Москвы;(495) 361-78-07;37.675003;55.640800;{type=Point, coordinates=[37.675003000044, 55.640799999981]}
255;Велосипедная парковка № 34108 «Школа № 982»;2757898;Южный административный округ;район Царицыно;Кантемировская улица, дом 1А;10;Департамент транспорта и развития дорожно-транспортной инфраструктуры города Москвы;ГКУ Центр организации дорожного движения Правительства Москвы;(495) 361-78-07;37.682369;55.634852;{type=Point, coordinates=[37.682369000321, 55.634852000195]}
246;Велосипедная парковка № 34109 «Школа № 985»;2757899;Южный административный округ;район Зябликово;Задонский проезд, дом 34, корпус 2;10;Департамент транспорта и развития дорожно-транспортной инфраструктуры города Москвы;ГКУ Центр организации дорожного движения Правительства Москвы;(495) 361-78-07;37.757403;55.620703;{type=Point, coordinates=[37.757402999673, 55.620703000241]}
203;Велосипедная парковка № 34110 «Школа № 991»;2757900;Южный административный округ;район Зябликово;Шипиловская улица, дом 59, корпус 2;10;Департамент транспорта и развития дорожно-транспортной инфраструктуры города Москвы;ГКУ Центр организации дорожного движения Правительства Москвы;(495) 361-78-07;37.749331;55.624698;{type=Point, coordinates=[37.749330999939, 55.624698000049]}
259;Велосипедная парковка № 34111 «Школа № 991»;2757901;Южный административный округ;район Зябликово;улица Мусы Джалиля, дом 28, корпус 2;10;Департамент транспорта и развития дорожно-транспортной инфраструктуры города Москвы;ГКУ Центр организации дорожного движения Правительства Москвы;(495) 361-78-07;37.739679;55.619475;{type=Point, coordinates=[37.739679000165, 55.619474999758]}
155;Велосипедная парковка № 33022 «Школа № 1106»;2757902;Юго-Западный административный округ;район Ясенево;проезд Карамзина, дом 13, корпус 3;10;Департамент транспорта и развития дорожно-транспортной инфраструктуры города Москвы;ГКУ Центр организации дорожного движения Правительства Москвы;(495) 361-78-07;37.540130;55.592246;{type=Point, coordinates=[37.540129999881, 55.592246000049]}
152;Велосипедная парковка № 33023 «Школа № 1266»;2757903;Юго-Западный административный округ;Гагаринский район;Ленинский проспект, дом 43А;10;Департамент транспорта и развития дорожно-транспортной инфраструктуры города Москвы;ГКУ Центр организации дорожного движения Правительства Москвы;(495) 361-78-07;37.577989;55.704896;{type=Point, coordinates=[37.577988999863, 55.704896000005]}
145;Велосипедная парковка № 33024 «Школа № 1273»;2757904;Юго-Западный административный округ;район Коньково;улица Академика Капицы, дом 12;10;Департамент транспорта и развития дорожно-транспортной инфраструктуры города Москвы;ГКУ Центр организации дорожного движения Правительства Москвы;(495) 361-78-07;37.522296;55.629041;{type=Point, coordinates=[37.52229599987, 55.62904099979]}
148;Велосипедная парковка № 33025 «Школа № 1279»;2757905;Юго-Западный административный округ;район Зюзино;Азовская улица, дом 2, корпус 2;10;Департамент транспорта и развития дорожно-транспортной инфраструктуры города Москвы;ГКУ Центр организации дорожного движения Правительства Москвы;(495) 361-78-07;37.603789;55.663685;{type=Point, coordinates=[37.6037890002, 55.663684999869]}
320;Велосипедная парковка № 33026 «Школа № 1354»;2757906;Юго-Западный административный округ;район Южное Бутово;Изюмская улица, дом 38, корпус 1;10;Департамент транспорта и развития дорожно-транспортной инфраструктуры города Москвы;ГКУ Центр организации дорожного движения Правительства Москвы;(495) 361-78-07;37.563357;55.548351;{type=Point, coordinates=[37.563356999767, 55.548351000115]}
306;Велосипедная парковка № 33027 «Школа № 1372»;2757907;Юго-Западный административный округ;район Южное Бутово;Чечёрский проезд, дом 80;10;Департамент транспорта и развития дорожно-транспортной инфраструктуры города Москвы;ГКУ Центр организации дорожного движения Правительства Москвы;(495) 361-78-07;37.522972;55.532045;{type=Point, coordinates=[37.522972000087, 55.532044999836]}
140;Велосипедная парковка № 33028 «Школа № 1379»;2757908;Юго-Западный административный округ;район Черёмушки;улица Гарибальди, дом 19, корпус 1;10;Департамент транспорта и развития дорожно-транспортной инфраструктуры города Москвы;ГКУ Центр организации дорожного движения Правительства Москвы;(495) 361-78-07;37.551232;55.674092;{type=Point, coordinates=[37.551231999999, 55.674091999793]}
150;Велосипедная парковка № 33029 «Лицей № 1561»;2757909;Юго-Западный административный округ;район Ясенево;Новоясеневский проспект, дом 38, корпус 2;10;Департамент транспорта и развития дорожно-транспортной инфраструктуры города Москвы;ГКУ Центр организации дорожного движения Правительства Москвы;(495) 361-78-07;37.543376;55.601930;{type=Point, coordinates=[37.543376000176, 55.60193000006]}
171;Велосипедная парковка № 33030 «Центр образования № 1681»;2757910;Юго-Западный административный округ;район Северное Бутово;бульвар Дмитрия Донского, дом 14А;10;Департамент транспорта и развития дорожно-транспортной инфраструктуры города Москвы;ГКУ Центр организации дорожного движения Правительства Москвы;(495) 361-78-07;37.570931;55.565313;{type=Point, coordinates=[37.570930999558, 55.565312999867]}
180;Велосипедная парковка № 33031 «Центр образования № 1694»;2757911;Юго-Западный административный округ;район Ясенево;Литовский бульвар, дом 11, корпус 6;10;Департамент транспорта и развития дорожно-транспортной инфраструктуры города Москвы;ГКУ Центр организации дорожного движения Правительства Москвы;(495) 361-78-07;37.544779;55.612844;{type=Point, coordinates=[37.544778999767, 55.61284399988]}
316;Велосипедная парковка № 33033 «Школа № 1825»;2757912;Юго-Западный административный округ;район Северное Бутово;Куликовская улица, дом 3Б;10;Департамент транспорта и развития дорожно-транспортной инфраструктуры города Москвы;ГКУ Центр организации дорожного движения Правительства Москвы;(495) 361-78-07;37.568630;55.571140;{type=Point, coordinates=[37.568629999992, 55.571140000107]}
256;Велосипедная парковка № 34112 «Школа № 995»;2757913;Южный административный округ;район Зябликово;улица Мусы Джалиля, дом 7, корпус 5;10;Департамент транспорта и развития дорожно-транспортной инфраструктуры города Москвы;ГКУ Центр организации дорожного движения Правительства Москвы;(495) 361-78-07;37.746045;55.628386;{type=Point, coordinates=[37.746045000359, 55.6283860002]}
199;Велосипедная парковка № 34113 «Школа № 996»;2757914;Южный административный округ;район Орехово-Борисово Северное;Борисовский проезд, дом 13;10;Департамент транспорта и развития дорожно-транспортной инфраструктуры города Москвы;ГКУ Центр организации дорожного движения Правительства Москвы;(495) 361-78-07;37.723027;55.626622;{type=Point, coordinates=[37.723026999812, 55.626621999827]}
328;Велосипедная парковка № 33034 «Центр образования № 1863»;2757915;Юго-Западный административный округ;район Южное Бутово;улица Поляны, дом 31А;10;Департамент транспорта и развития дорожно-транспортной инфраструктуры города Москвы;ГКУ Центр организации дорожного движения Правительства Москвы;(495) 361-78-07;37.550802;55.550330;{type=Point, coordinates=[37.550801999829, 55.550330000097]}
325;Велосипедная парковка № 33035 «Центр образования № 1883»;2757916;Юго-Западный административный округ;район Южное Бутово;улица Поляны, дом 53;10;Департамент транспорта и развития дорожно-транспортной инфраструктуры города Москвы;ГКУ Центр организации дорожного движения Правительства Москвы;(495) 361-78-07;37.547305;55.549356;{type=Point, coordinates=[37.547305000362, 55.549356000167]}
305;Велосипедная парковка № 33036 «Школа № 1946»;2757917;Юго-Западный административный округ;район Южное Бутово;Южнобутовская улица, дом 135А;10;Департамент транспорта и развития дорожно-транспортной инфраструктуры города Москвы;ГКУ Центр организации дорожного движения Правительства Москвы;(495) 361-78-07;37.514935;55.530849;{type=Point, coordinates=[37.514934999616, 55.530849000016]}
313;Велосипедная парковка № 33037 «Школа № 1995»;2757918;Юго-Западный административный округ;Обручевский район;улица Саморы Машела, дом 6, корпус 3;10;Департамент транспорта и развития дорожно-транспортной инфраструктуры города Москвы;ГКУ Центр организации дорожного движения Правительства Москвы;(495) 361-78-07;37.497773;55.646245;{type=Point, coordinates=[37.497772999625, 55.646245000171]}
308;Велосипедная парковка № 33038 «Школа № 2007»;2757919;Юго-Западный административный округ;район Южное Бутово;улица Горчакова, дом 9, корпус 1;10;Департамент транспорта и развития дорожно-транспортной инфраструктуры города Москвы;ГКУ Центр организации дорожного движения Правительства Москвы;(495) 361-78-07;37.532654;55.544580;{type=Point, coordinates=[37.532653999999, 55.544580000062]}
322;Велосипедная парковка № 33039 «Школа № 2046»;2757920;Юго-Западный административный округ;район Южное Бутово;улица Маршала Савицкого, дом 6, корпус 4;10;Департамент транспорта и развития дорожно-транспортной инфраструктуры города Москвы;ГКУ Центр организации дорожного движения Правительства Москвы;(495) 361-78-07;37.578785;55.503559;{type=Point, coordinates=[37.578784999731, 55.503558999793]}
319;Велосипедная парковка № 33043 «Школа № 1071»;2757921;Юго-Западный административный округ;район Северное Бутово;бульвар Дмитрия Донского, дом 6А;10;Департамент транспорта и развития дорожно-транспортной инфраструктуры города Москвы;ГКУ Центр организации дорожного движения Правительства Москвы;(495) 361-78-07;37.571583;55.569312;{type=Point, coordinates=[37.571583000384, 55.569312000198]}
318;Велосипедная парковка № 33045 «Школа № 1174»;2757922;Юго-Западный административный округ;район Северное Бутово;Феодосийская улица, дом 11А;10;Департамент транспорта и развития дорожно-транспортной инфраструктуры города Москвы;ГКУ Центр организации дорожного движения Правительства Москвы;(495) 361-78-07;37.575498;55.563919;{type=Point, coordinates=[37.575498000326, 55.563919000045]}
311;Велосипедная парковка № 33047 «Школа № 1356»;2757923;Юго-Западный административный округ;район Северное Бутово;улица Грина, дом 18Б;10;Департамент транспорта и развития дорожно-транспортной инфраструктуры города Москвы;ГКУ Центр организации дорожного движения Правительства Москвы;(495) 361-78-07;37.581352;55.567414;{type=Point, coordinates=[37.581352000334, 55.567413999873]}
195;Велосипедная парковка № 34114 «Школа № 997»;2757924;Южный административный округ;район Братеево;улица Борисовские Пруды, дом 20, корпус 3;10;Департамент транспорта и развития дорожно-транспортной инфраструктуры города Москвы;ГКУ Центр организации дорожного движения Правительства Москвы;(495) 361-78-07;37.754371;55.637418;{type=Point, coordinates=[37.754370999638, 55.637417999875]}
197;Велосипедная парковка № 34115 «Школа № 998»;2757925;Южный административный округ;район Братеево;улица Борисовские Пруды, дом 36, корпус 2;10;Департамент транспорта и развития дорожно-транспортной инфраструктуры города Москвы;ГКУ Центр организации дорожного движения Правительства Москвы;(495) 361-78-07;37.765802;55.640390;{type=Point, coordinates=[37.765801999644, 55.640390000152]}
243;Велосипедная парковка № 34116 «Школа № 998»;2757926;Южный административный округ;район Братеево;Паромная улица, дом 5, корпус 3;10;Департамент транспорта и развития дорожно-транспортной инфраструктуры города Москвы;ГКУ Центр организации дорожного движения Правительства Москвы;(495) 361-78-07;37.763507;55.639784;{type=Point, coordinates=[37.763506999926, 55.639784000045]}
204;Велосипедная парковка № 34117 «Школа № 1034»;2757927;Южный административный округ;район Братеево;Братеевская улица, дом 8, корпус 2;10;Департамент транспорта и развития дорожно-транспортной инфраструктуры города Москвы;ГКУ Центр организации дорожного движения Правительства Москвы;(495) 361-78-07;37.759783;55.631604;{type=Point, coordinates=[37.75978299978, 55.631604000155]}
206;Велосипедная парковка № 34118 «Школа № 1034»;2757928;Южный административный округ;район Братеево;Братеевская улица, дом 23, корпус 4;10;Департамент транспорта и развития дорожно-транспортной инфраструктуры города Москвы;ГКУ Центр организации дорожного движения Правительства Москвы;(495) 361-78-07;37.757065;55.632977;{type=Point, coordinates=[37.757064999564, 55.632977000106]}
358;Велосипедная парковка № 34119 «Школа № 1055»;2757929;Южный административный округ;район Нагатинский Затон;Судостроительная улица, дом 31, корпус 2;10;Департамент транспорта и развития дорожно-транспортной инфраструктуры города Москвы;ГКУ Центр организации дорожного движения Правительства Москвы;(495) 361-78-07;37.680899;55.684278;{type=Point, coordinates=[37.680898999885, 55.684277999837]}
229;Велосипедная парковка № 34120 «Школа № 1073»;2757930;Южный административный округ;район Нагатино-Садовники;Старокаширское шоссе, дом 2, корпус 11;10;Департамент транспорта и развития дорожно-транспортной инфраструктуры города Москвы;ГКУ Центр организации дорожного движения Правительства Москвы;(495) 361-78-07;37.627036;55.660208;{type=Point, coordinates=[37.627036000178, 55.660207999747]}
225;Велосипедная парковка № 34122 «Лицей № 1158»;2757931;Южный административный округ;район Чертаново Северное;Сумской проезд, дом 19А;10;Департамент транспорта и развития дорожно-транспортной инфраструктуры города Москвы;ГКУ Центр организации дорожного движения Правительства Москвы;(495) 361-78-07;37.595049;55.631507;{type=Point, coordinates=[37.595048999747, 55.631507000116]}
223;Велосипедная парковка № 34123 «Лицей № 1158»;2757932;Южный административный округ;район Чертаново Северное;Сумской проезд, дом 21А;10;Департамент транспорта и развития дорожно-транспортной инфраструктуры города Москвы;ГКУ Центр организации дорожного движения Правительства Москвы;(495) 361-78-07;37.594520;55.629563;{type=Point, coordinates=[37.594519999842, 55.629562999855]}
272;Велосипедная парковка № 34124 «Школа № 1171»;2757933;Южный административный округ;район Чертаново Южное;Кировоградская улица, дом 42Б;10;Департамент транспорта и развития дорожно-транспортной инфраструктуры города Москвы;ГКУ Центр организации дорожного движения Правительства Москвы;(495) 361-78-07;37.595625;55.599061;{type=Point, coordinates=[37.595625000405, 55.599061000247]}
217;Велосипедная парковка № 34125 «Школа № 1173»;2757934;Южный административный округ;район Чертаново Центральное;Чертановская улица, дом 27;10;Департамент транспорта и развития дорожно-транспортной инфраструктуры города Москвы;ГКУ Центр организации дорожного движения Правительства Москвы;(495) 361-78-07;37.594199;55.616679;{type=Point, coordinates=[37.59419900035, 55.616679000166]}
287;Велосипедная парковка № 34020 «Школа № 547»;2757935;Южный административный округ;Даниловский район;Малая Тульская улица, дом 15;10;Департамент транспорта и развития дорожно-транспортной инфраструктуры города Москвы;ГКУ Центр организации дорожного движения Правительства Москвы;(495) 361-78-07;37.619541;55.708900;{type=Point, coordinates=[37.61954100003, 55.708899999852]}
282;Велосипедная парковка № 34021 «Школа № 547»;2757936;Южный административный округ;Даниловский район;Даниловская набережная, дом 6;10;Департамент транспорта и развития дорожно-транспортной инфраструктуры города Москвы;ГКУ Центр организации дорожного движения Правительства Москвы;(495) 361-78-07;37.639740;55.709343;{type=Point, coordinates=[37.639740000079, 55.709342999926]}
270;Велосипедная парковка № 34022 «Центр образования № 548 Царицыно»;2757937;Южный административный округ;район Орехово-Борисово Северное;улица Маршала Захарова, дом 8, корпус 1;10;Департамент транспорта и развития дорожно-транспортной инфраструктуры города Москвы;ГКУ Центр организации дорожного движения Правительства Москвы;(495) 361-78-07;37.702322;55.623251;{type=Point, coordinates=[37.702322000323, 55.623251000195]}
226;Велосипедная парковка № 34023 «Центр образования № 548 Царицыно»;2757938;Южный административный округ;район Орехово-Борисово Южное;Домодедовская улица, дом 35, корпус 2;10;Департамент транспорта и развития дорожно-транспортной инфраструктуры города Москвы;ГКУ Центр организации дорожного движения Правительства Москвы;(495) 361-78-07;37.718424;55.599144;{type=Point, coordinates=[37.718423999957, 55.599144000198]}
234;Велосипедная парковка № 34024 «Центр образования № 548 Царицыно»;2757939;Южный административный округ;район Орехово-Борисово Южное;Елецкая улица, дом 31, корпус 2;10;Департамент транспорта и развития дорожно-транспортной инфраструктуры города Москвы;ГКУ Центр организации дорожного движения Правительства Москвы;(495) 361-78-07;37.737964;55.602694;{type=Point, coordinates=[37.737964000405, 55.602693999765]}
205;Велосипедная парковка № 34025 «Центр образования № 548 Царицыно»;2757940;Южный административный округ;район Зябликово;Шипиловская улица, дом 46, корпус 2;10;Департамент транспорта и развития дорожно-транспортной инфраструктуры города Москвы;ГКУ Центр организации дорожного движения Правительства Москвы;(495) 361-78-07;37.733387;55.620353;{type=Point, coordinates=[37.733386999591, 55.620352999799]}
265;Велосипедная парковка № 34027 «Школа № 549»;2757941;Южный административный округ;район Чертаново Южное;Кировоградская улица, дом 21;10;Департамент транспорта и развития дорожно-транспортной инфраструктуры города Москвы;ГКУ Центр организации дорожного движения Правительства Москвы;(495) 361-78-07;37.601803;55.603095;{type=Point, coordinates=[37.601803000279, 55.603095000125]}
232;Велосипедная парковка № 34028 «Школа № 550»;2757942;Южный административный округ;район Чертаново Северное;микрорайон Северное Чертаново, корпус 810;10;Департамент транспорта и развития дорожно-транспортной инфраструктуры города Москвы;ГКУ Центр организации дорожного движения Правительства Москвы;(495) 361-78-07;37.593576;55.634635;{type=Point, coordinates=[37.593575999836, 55.634635000043]}
233;Велосипедная парковка № 34029 «Школа № 550»;2757943;Южный административный округ;район Чертаново Северное;микрорайон Северное Чертаново, корпус 809А;10;Департамент транспорта и развития дорожно-транспортной инфраструктуры города Москвы;ГКУ Центр организации дорожного движения Правительства Москвы;(495) 361-78-07;37.596356;55.634708;{type=Point, coordinates=[37.596355999976, 55.634707999849]}
209;Велосипедная парковка № 34030 «Школа № 551»;2757944;Южный административный округ;Нагорный район;Чонгарский бульвар, дом 12;10;Департамент транспорта и развития дорожно-транспортной инфраструктуры города Москвы;ГКУ Центр организации дорожного движения Правительства Москвы;(495) 361-78-07;37.612095;55.653738;{type=Point, coordinates=[37.612095000285, 55.653738000113]}
221;Велосипедная парковка № 34031 «Центр образования № 556» (1);2757945;Южный административный округ;район Чертаново Центральное;Днепропетровская улица, дом 33А;10;Департамент транспорта и развития дорожно-транспортной инфраструктуры города Москвы;ГКУ Центр организации дорожного движения Правительства Москвы;(495) 361-78-07;37.585459;55.616766;{type=Point, coordinates=[37.585458999897, 55.616765999946]}
423;Велосипедная парковка № 37014 «Школа № 258»;2757946;Северо-Восточный административный округ;район Отрадное;Северный бульвар, дом 4А;10;Департамент транспорта и развития дорожно-транспортной инфраструктуры города Москвы;ГКУ Центр организации дорожного движения Правительства Москвы;(495) 361-78-07;37.610003;55.865550;{type=Point, coordinates=[37.610003000058, 55.865550000093]}
418;Велосипедная парковка № 37015 «Школа № 258»;2757947;Северо-Восточный административный округ;район Отрадное;Северный бульвар, дом 4А;10;Департамент транспорта и развития дорожно-транспортной инфраструктуры города Москвы;ГКУ Центр организации дорожного движения Правительства Москвы;(495) 361-78-07;37.609975;55.865559;{type=Point, coordinates=[37.609974999571, 55.865558999896]}
414;Велосипедная парковка № 37016 «Школа № 259»;2757948;Северо-Восточный административный округ;район Марьина Роща;улица Двинцев, дом 10;10;Департамент транспорта и развития дорожно-транспортной инфраструктуры города Москвы;ГКУ Центр организации дорожного движения Правительства Москвы;(495) 361-78-07;37.600278;55.795117;{type=Point, coordinates=[37.600277999591, 55.795116999859]}
198;Велосипедная парковка № 34048 «Школа № 832»;2757949;Южный административный округ;район Орехово-Борисово Южное;Шипиловский проезд, дом 57;10;Департамент транспорта и развития дорожно-транспортной инфраструктуры города Москвы;ГКУ Центр организации дорожного движения Правительства Москвы;(495) 361-78-07;37.704728;55.605278;{type=Point, coordinates=[37.704728000369, 55.605278000046]}
347;Велосипедная парковка № 34049 «Школа № 832»;2757950;Южный административный округ;район Царицыно;Кавказский бульвар, дом 37, корпус 2;10;Департамент транспорта и развития дорожно-транспортной инфраструктуры города Москвы;ГКУ Центр организации дорожного движения Правительства Москвы;(495) 361-78-07;37.653839;55.626169;{type=Point, coordinates=[37.653839000073, 55.626169000006]}
252;Велосипедная парковка № 34050 «Школа № 838»;2757951;Южный административный округ;район Орехово-Борисово Северное;улица Новинки, дом 8;10;Департамент транспорта и развития дорожно-транспортной инфраструктуры города Москвы;ГКУ Центр организации дорожного движения Правительства Москвы;(495) 361-78-07;37.670247;55.676411;{type=Point, coordinates=[37.670247000028, 55.676410999786]}
343;Велосипедная парковка № 34051 «Школа № 850»;2757952;Южный административный округ;район Чертаново Южное;улица Газопровод, дом 3А;10;Департамент транспорта и развития дорожно-транспортной инфраструктуры города Москвы;ГКУ Центр организации дорожного движения Правительства Москвы;(495) 361-78-07;37.605691;55.592078;{type=Point, coordinates=[37.605690999558, 55.592078000202]}
263;Велосипедная парковка № 34052 «Школа № 851»;2757953;Южный административный округ;район Чертаново Северное;Кировоградская улица, дом 8Г;10;Департамент транспорта и развития дорожно-транспортной инфраструктуры города Москвы;ГКУ Центр организации дорожного движения Правительства Москвы;(495) 361-78-07;37.607022;55.628149;{type=Point, coordinates=[37.607022000077, 55.628149000114]}
227;Велосипедная парковка № 34053 «Школа № 856»;2757954;Южный административный округ;район Чертаново Северное;Сумской проезд, дом 12, корпус 6;10;Департамент транспорта и развития дорожно-транспортной инфраструктуры города Москвы;ГКУ Центр организации дорожного движения Правительства Москвы;(495) 361-78-07;37.607966;55.636552;{type=Point, coordinates=[37.607966000083, 55.636552000015]}
268;Велосипедная парковка № 34054 «Школа № 858»;2757955;Южный административный округ;район Чертаново Центральное;Кировоградская улица, дом 22А;10;Департамент транспорта и развития дорожно-транспортной инфраструктуры города Москвы;ГКУ Центр организации дорожного движения Правительства Москвы;(495) 361-78-07;37.602255;55.615577;{type=Point, coordinates=[37.60225500019, 55.615576999933]}
283;Велосипедная парковка № 34055 «Школа № 859»;2757956;Южный административный округ;район Чертаново Южное;Дорожная улица, дом 22А;10;Департамент транспорта и развития дорожно-транспортной инфраструктуры города Москвы;ГКУ Центр организации дорожного движения Правительства Москвы;(495) 361-78-07;37.617748;55.599890;{type=Point, coordinates=[37.617747999554, 55.599890000159]}
332;Велосипедная парковка № 37020 «Школа № 289»;2757957;Северо-Восточный административный округ;район Южное Медведково;Ясный проезд, дом 10, корпус 3;10;Департамент транспорта и развития дорожно-транспортной инфраструктуры города Москвы;ГКУ Центр организации дорожного движения Правительства Москвы;(495) 361-78-07;37.629370;55.876083;{type=Point, coordinates=[37.629370000254, 55.876083000049]}
121;Велосипедная парковка № 37025 «Школа № 299»;2757958;Северо-Восточный административный округ;Бабушкинский район;Ленская улица, дом 24;10;Департамент транспорта и развития дорожно-транспортной инфраструктуры города Москвы;ГКУ Центр организации дорожного движения Правительства Москвы;(495) 361-78-07;37.660341;55.868190;{type=Point, coordinates=[37.660340999811, 55.868189999913]}
113;Велосипедная парковка № 37027 «Школа № 302»;2757959;Северо-Восточный административный округ;Алтуфьевский район;Инженерная улица, дом 16;10;Департамент транспорта и развития дорожно-транспортной инфраструктуры города Москвы;ГКУ Центр организации дорожного движения Правительства Москвы;(495) 361-78-07;37.579893;55.880033;{type=Point, coordinates=[37.579892999769, 55.880032999938]}
119;Велосипедная парковка № 37028 «Школа № 304»;2757960;Северо-Восточный административный округ;Останкинский район;улица Кондратюка, дом 5;10;Департамент транспорта и развития дорожно-транспортной инфраструктуры города Москвы;ГКУ Центр организации дорожного движения Правительства Москвы;(495) 361-78-07;37.634014;55.818398;{type=Point, coordinates=[37.634014000117, 55.818397999957]}
112;Велосипедная парковка № 37029 «Школа № 305»;2757961;Северо-Восточный административный округ;Алтуфьевский район;Путевой проезд, дом 10А;10;Департамент транспорта и развития дорожно-транспортной инфраструктуры города Москвы;ГКУ Центр организации дорожного движения Правительства Москвы;(495) 361-78-07;37.580132;55.875446;{type=Point, coordinates=[37.580132000144, 55.875446000242]}
101;Велосипедная парковка № 37034 «Школа № 308»;2757962;Северо-Восточный административный округ;Алексеевский район;Новоалексеевская улица, дом 6;10;Департамент транспорта и развития дорожно-транспортной инфраструктуры города Москвы;ГКУ Центр организации дорожного движения Правительства Москвы;(495) 361-78-07;37.642371;55.807141;{type=Point, coordinates=[37.642371000256, 55.807141000031]}
224;Велосипедная парковка № 34056 «Школа № 861»;2757963;Южный административный округ;район Чертаново Центральное;Днепропетровская улица, дом 25А;10;Департамент транспорта и развития дорожно-транспортной инфраструктуры города Москвы;ГКУ Центр организации дорожного движения Правительства Москвы;(495) 361-78-07;37.585266;55.620733;{type=Point, coordinates=[37.585265999553, 55.620733000047]}
273;Велосипедная парковка № 34057 «Школа № 867»;2757964;Южный административный округ;район Братеево;Ключевая улица, дом 6, корпус 2;10;Департамент транспорта и развития дорожно-транспортной инфраструктуры города Москвы;ГКУ Центр организации дорожного движения Правительства Москвы;(495) 361-78-07;37.756250;55.637005;{type=Point, coordinates=[37.756250000328, 55.637004999987]}
235;Велосипедная парковка № 34058 «Школа № 868»;2757965;Южный административный округ;район Царицыно;Севанская улица, дом 13, корпус 2;10;Департамент транспорта и развития дорожно-транспортной инфраструктуры города Москвы;ГКУ Центр организации дорожного движения Правительства Москвы;(495) 361-78-07;37.653225;55.621264;{type=Point, coordinates=[37.653224999779, 55.621264000212]}
191;Велосипедная парковка № 34059 «Школа № 869»;2757966;Южный административный округ;район Царицыно;улица Бехтерева, дом 51;10;Департамент транспорта и развития дорожно-транспортной инфраструктуры города Москвы;ГКУ Центр организации дорожного движения Правительства Москвы;(495) 361-78-07;37.646505;55.615561;{type=Point, coordinates=[37.646504999583, 55.615561000167]}
208;Велосипедная парковка № 34060 «Школа № 870»;2757967;Южный административный округ;район Царицыно;Весёлая улица, дом 12;10;Департамент транспорта и развития дорожно-транспортной инфраструктуры города Москвы;ГКУ Центр организации дорожного движения Правительства Москвы;(495) 361-78-07;37.663196;55.624217;{type=Point, coordinates=[37.663196000294, 55.624217000056]}
236;Велосипедная парковка № 34061 «Школа № 870»;2757968;Южный административный округ;район Царицыно;Севанская улица, дом 6;10;Департамент транспорта и развития дорожно-транспортной инфраструктуры города Москвы;ГКУ Центр организации дорожного движения Правительства Москвы;(495) 361-78-07;37.662759;55.621517;{type=Point, coordinates=[37.662758999553, 55.621517000217]}
249;Велосипедная парковка № 34062 «Школа № 871»;2757969;Южный административный округ;район Зябликово;Ореховый бульвар, дом 35, корпус 3;10;Департамент транспорта и развития дорожно-транспортной инфраструктуры города Москвы;ГКУ Центр организации дорожного движения Правительства Москвы;(495) 361-78-07;37.735538;55.617591;{type=Point, coordinates=[37.735538000267, 55.617591000096]}
193;Велосипедная парковка № 34063 «Школа № 877»;2757970;Южный административный округ;район Бирюлёво Восточное;Бирюлёвская улица, дом 23, корпус 1;10;Департамент транспорта и развития дорожно-транспортной инфраструктуры города Москвы;ГКУ Центр организации дорожного движения Правительства Москвы;(495) 361-78-07;37.665787;55.593414;{type=Point, coordinates=[37.665787000288, 55.593413999819]}
117;Велосипедная парковка № 37036 «Школа № 311»;2757971;Северо-Восточный административный округ;Бабушкинский район;Енисейская улица, дом 27;10;Департамент транспорта и развития дорожно-транспортной инфраструктуры города Москвы;ГКУ Центр организации дорожного движения Правительства Москвы;(495) 361-78-07;37.663291;55.874547;{type=Point, coordinates=[37.66329099983, 55.874547000203]}
428;Велосипедная парковка № 37050 «Школа № 752»;2757972;Северо-Восточный административный округ;Ярославский район;Ярославское шоссе, дом 8, корпус 7;10;Департамент транспорта и развития дорожно-транспортной инфраструктуры города Москвы;ГКУ Центр организации дорожного движения Правительства Москвы;(495) 361-78-07;37.688456;55.851475;{type=Point, coordinates=[37.688455999958, 55.851474999947]}
124;Велосипедная парковка № 37054 «Школа № 757»;2757973;Северо-Восточный административный округ;Бабушкинский район;улица Менжинского, дом 30;10;Департамент транспорта и развития дорожно-транспортной инфраструктуры города Москвы;ГКУ Центр организации дорожного движения Правительства Москвы;(495) 361-78-07;37.670198;55.870579;{type=Point, coordinates=[37.670197999625, 55.870578999798]}
169;Велосипедная парковка № 37058 «Школа № 762»;2757974;Северо-Восточный административный округ;Лосиноостровский район;Норильская улица, дом 4;10;Департамент транспорта и развития дорожно-транспортной инфраструктуры города Москвы;ГКУ Центр организации дорожного движения Правительства Москвы;(495) 361-78-07;37.696028;55.876159;{type=Point, coordinates=[37.696028000099, 55.876158999827]}
90;Велосипедная парковка № 37059 «Школа № 763»;2757975;Северо-Восточный административный округ;Лосиноостровский район;Стартовая улица, дом 27, корпус 3;10;Департамент транспорта и развития дорожно-транспортной инфраструктуры города Москвы;ГКУ Центр организации дорожного движения Правительства Москвы;(495) 361-78-07;37.694898;55.884149;{type=Point, coordinates=[37.69489800032, 55.884148999846]}
285;Велосипедная парковка № 34044 «Школа № 652»;2757976;Южный административный округ;район Чертаново Центральное;улица Красного Маяка, дом 13А;10;Департамент транспорта и развития дорожно-транспортной инфраструктуры города Москвы;ГКУ Центр организации дорожного движения Правительства Москвы;(495) 361-78-07;37.580732;55.610674;{type=Point, coordinates=[37.580732000193, 55.610674000038]}
241;Велосипедная парковка № 34045 «Школа № 657»;2757977;Южный административный округ;район Чертаново Южное;улица Подольских Курсантов, дом 16А;10;Департамент транспорта и развития дорожно-транспортной инфраструктуры города Москвы;ГКУ Центр организации дорожного движения Правительства Москвы;(495) 361-78-07;37.620025;55.605602;{type=Point, coordinates=[37.620024999729, 55.605602000086]}
218;Велосипедная парковка № 34046 «Школа № 667»;2757978;Южный административный округ;район Бирюлёво Западное;Востряковский проезд, дом 13А;10;Департамент транспорта и развития дорожно-транспортной инфраструктуры города Москвы;ГКУ Центр организации дорожного движения Правительства Москвы;(495) 361-78-07;37.645210;55.577833;{type=Point, coordinates=[37.645209999947, 55.577832999986]}
348;Велосипедная парковка № 34047 «Школа № 728»;2757979;Южный административный округ;район Чертаново Северное;Кировоградская улица, дом 6Б;10;Департамент транспорта и развития дорожно-транспортной инфраструктуры города Москвы;ГКУ Центр организации дорожного движения Правительства Москвы;(495) 361-78-07;37.608211;55.629802;{type=Point, coordinates=[37.608211000306, 55.629802000143]}
342;Велосипедная парковка № 34126 «Центр образования № 1178»;2757980;Южный административный округ;район Чертаново Южное;Варшавское шоссе, дом 152, корпус 10;10;Департамент транспорта и развития дорожно-транспортной инфраструктуры города Москвы;ГКУ Центр организации дорожного движения Правительства Москвы;(495) 361-78-07;37.596053;55.591928;{type=Point, coordinates=[37.596053000028, 55.591927999948]}
366;Велосипедная парковка № 35001 «Школа № 416»;2757981;Юго-Восточный административный округ;район Лефортово;Шепелюгинская улица, дом 21;10;Департамент транспорта и развития дорожно-транспортной инфраструктуры города Москвы;ГКУ Центр организации дорожного движения Правительства Москвы;(495) 361-78-07;37.703670;55.745093;{type=Point, coordinates=[37.703669999662, 55.745092999911]}
207;Велосипедная парковка № 35002 «Школа № 426»;2757982;Южный административный округ;район Орехово-Борисово Северное;Шипиловская улица, дом 27, корпус 2;10;Департамент транспорта и развития дорожно-транспортной инфраструктуры города Москвы;ГКУ Центр организации дорожного движения Правительства Москвы;(495) 361-78-07;37.724494;55.622611;{type=Point, coordinates=[37.724493999875, 55.622610999895]}
359;Велосипедная парковка № 35003 «Школа № 430»;2757983;Юго-Восточный административный округ;район Некрасовка;1-я Вольская улица, дом 9, корпус 3;10;Департамент транспорта и развития дорожно-транспортной инфраструктуры города Москвы;ГКУ Центр организации дорожного движения Правительства Москвы;(495) 361-78-07;37.921475;55.684493;{type=Point, coordinates=[37.921474999732, 55.684493000077]}
288;Велосипедная парковка № 34043 «Школа № 639»;2757984;Южный административный округ;Донской район;улица Стасовой, дом 8;10;Департамент транспорта и развития дорожно-транспортной инфраструктуры города Москвы;ГКУ Центр организации дорожного движения Правительства Москвы;(495) 361-78-07;37.594838;55.713759;{type=Point, coordinates=[37.59483799986, 55.713758999948]}
425;Велосипедная парковка № 37063 «Школа № 954»;2757985;Северо-Восточный административный округ;район Бибирево;улица Корнейчука, дом 37А;10;Департамент транспорта и развития дорожно-транспортной инфраструктуры города Москвы;ГКУ Центр организации дорожного движения Правительства Москвы;(495) 361-78-07;37.636029;55.895300;{type=Point, coordinates=[37.636029000351, 55.895300000203]}
427;Велосипедная парковка № 37064 «Школа № 956»;2757986;Северо-Восточный административный округ;район Южное Медведково;Заповедная улица, дом 22;10;Департамент транспорта и развития дорожно-транспортной инфраструктуры города Москвы;ГКУ Центр организации дорожного движения Правительства Москвы;(495) 361-78-07;37.642945;55.867514;{type=Point, coordinates=[37.642945000366, 55.867514000145]}
184;Велосипедная парковка № 37067 «Школа № 961»;2757987;Северо-Восточный административный округ;Алтуфьевский район;Бибиревская улица, дом 5;10;Департамент транспорта и развития дорожно-транспортной инфраструктуры города Москвы;ГКУ Центр организации дорожного движения Правительства Москвы;(495) 361-78-07;37.593928;55.881088;{type=Point, coordinates=[37.593928000189, 55.881087999779]}
417;Велосипедная парковка № 37068 «Школа № 962»;2757988;Северо-Восточный административный округ;район Отрадное;улица Санникова, дом 3, корпус 3;10;Департамент транспорта и развития дорожно-транспортной инфраструктуры города Москвы;ГКУ Центр организации дорожного движения Правительства Москвы;(495) 361-78-07;37.593089;55.859861;{type=Point, coordinates=[37.593088999765, 55.859861000154]}
416;Велосипедная парковка № 37069 «Школа № 1201»;2757989;Северо-Восточный административный округ;Алексеевский район;улица Павла Корчагина, дом 13, строение 1;10;Департамент транспорта и развития дорожно-транспортной инфраструктуры города Москвы;ГКУ Центр организации дорожного движения Правительства Москвы;(495) 361-78-07;37.659550;55.818640;{type=Point, coordinates=[37.659549999966, 55.818639999833]}
410;Велосипедная парковка № 37070 «Школа № 1220»;2757990;Северо-Восточный административный округ;Останкинский район;Аргуновская улица, дом 12, корпус 2, строение 1;10;Департамент транспорта и развития дорожно-транспортной инфраструктуры города Москвы;ГКУ Центр организации дорожного движения Правительства Москвы;(495) 361-78-07;37.621270;55.817581;{type=Point, coordinates=[37.621270000034, 55.817581000036]}
412;Велосипедная парковка № 37072 «Школа № 1220»;2757991;Северо-Восточный административный округ;Останкинский район;Аргуновская улица, дом 12, корпус 2, строение 3;10;Департамент транспорта и развития дорожно-транспортной инфраструктуры города Москвы;ГКУ Центр организации дорожного движения Правительства Москвы;(495) 361-78-07;37.620785;55.817601;{type=Point, coordinates=[37.620784999612, 55.817600999781]}
422;Велосипедная парковка № 37041 «Школа здоровья № 606»;2757992;Северо-Восточный административный округ;район Отрадное;улица Бестужевых, дом 25Б;10;Департамент транспорта и развития дорожно-транспортной инфраструктуры города Москвы;ГКУ Центр организации дорожного движения Правительства Москвы;(495) 361-78-07;37.613951;55.872285;{type=Point, coordinates=[37.613950999612, 55.87228500021]}
181;Велосипедная парковка № 37042 «Школа № 655»;2757993;Северо-Восточный административный округ;район Лианозово;Новгородская улица, дом 12;10;Департамент транспорта и развития дорожно-транспортной инфраструктуры города Москвы;ГКУ Центр организации дорожного движения Правительства Москвы;(495) 361-78-07;37.581550;55.895000;{type=Point, coordinates=[37.581549999803, 55.894999999826]}
118;Велосипедная парковка № 37043 «Школа здоровья № 709»;2757994;Северо-Восточный административный округ;район Северный;9-я Северная линия, дом 1, корпус 2;10;Департамент транспорта и развития дорожно-транспортной инфраструктуры города Москвы;ГКУ Центр организации дорожного движения Правительства Москвы;(495) 361-78-07;37.556129;55.935553;{type=Point, coordinates=[37.556128999582, 55.935552999748]}
106;Велосипедная парковка № 37044 «Школа № 745»;2757995;Северо-Восточный административный округ;район Отрадное;Алтуфьевское шоссе, дом 30А;10;Департамент транспорта и развития дорожно-транспортной инфраструктуры города Москвы;ГКУ Центр организации дорожного движения Правительства Москвы;(495) 361-78-07;37.587633;55.865945;{type=Point, coordinates=[37.58763300014, 55.865944999958]}
429;Велосипедная парковка № 37046 «Школа № 751»;2757996;Северо-Восточный административный округ;Лосиноостровский район;Таймырская улица, дом 5;10;Департамент транспорта и развития дорожно-транспортной инфраструктуры города Москвы;ГКУ Центр организации дорожного движения Правительства Москвы;(495) 361-78-07;37.697385;55.884386;{type=Point, coordinates=[37.697384999659, 55.884386000213]}
202;Велосипедная парковка № 35004 «Школа № 438»;2757997;Южный административный округ;район Орехово-Борисово Северное;Борисовский проезд, дом 40, корпус 3;10;Департамент транспорта и развития дорожно-транспортной инфраструктуры города Москвы;ГКУ Центр организации дорожного движения Правительства Москвы;(495) 361-78-07;37.724538;55.616475;{type=Point, coordinates=[37.724538000256, 55.616475000028]}
364;Велосипедная парковка № 35018 «Школа № 1403»;2757998;Юго-Восточный административный округ;район Текстильщики;1-й Саратовский проезд, дом 5;10;Департамент транспорта и развития дорожно-транспортной инфраструктуры города Москвы;ГКУ Центр организации дорожного движения Правительства Москвы;(495) 361-78-07;37.736287;55.711505;{type=Point, coordinates=[37.73628700028, 55.711505000169]}
367;Велосипедная парковка № 35019 «Центр образования № 1420»;2757999;Юго-Восточный административный округ;район Выхино-Жулебино;Ташкентская улица, дом 21, корпус 2;10;Департамент транспорта и развития дорожно-транспортной инфраструктуры города Москвы;ГКУ Центр организации дорожного движения Правительства Москвы;(495) 361-78-07;37.814410;55.701124;{type=Point, coordinates=[37.814409999568, 55.701123999932]}
360;Велосипедная парковка № 35020 «Центр образования № 1457»;2758000;Юго-Восточный административный округ;район Выхино-Жулебино;Хвалынский бульвар, дом 4, корпус 4;10;Департамент транспорта и развития дорожно-транспортной инфраструктуры города Москвы;ГКУ Центр организации дорожного движения Правительства Москвы;(495) 361-78-07;37.849224;55.700073;{type=Point, coordinates=[37.849223999995, 55.700073000208]}
